Codigo_PRTR,index,Nombre_del_complejo,Cantidad_total_atmosfera,Empresa_matriz,Municipio,Provincia,Longitud,Latitud,CNAE_2009,Actividad económica principal
9680,1,LAUREANA MARTIN ,377.794,"POLLOS CANO, S.L.",Salvatierra de los Barros,Badajoz,-6.385402,38.29922,Avicultura,"EXPLOTACIÓN AVICOLA, CRÍA Y ENGORDE DE POLLOS"
2166,2,PRODUCCIONES AVÍCOLAS EL GRANJERO S.L. ,227,PRODUCCIONES AVÍCOLAS EL GRANJERO,San Cristóbal de Cuéllar,Segovia,-4.377961,41.429583,Avicultura,CRÍA INTENSIVA DE AVES
1719,3,"GRANJA MADAX CEBO Nº1, 2, 3, 4 Y LECHONERAS ",334.83,"CEFU, S.A.",Hellín,Albacete,-1.5411,38.4533,Explotación de ganado porcino,ENGORDE DE CERDOS
1909,4,EXPLOTACION DE POLLOS ENGORDE ALTAPEDRA CORTEGADA ,225,COOPERATIVA ALTAPEDRA,Sarreaus,Ourense,-7.672242,42.13098,Avicultura,Avicultura
7201,5,DAGU AGROPECUARIA S.L. ,220.07,"DAGU AGROPECUARIA, S.L.",Fuentelahiguera de Albatages,Guadalajara,-3.34196,40.75054,Avicultura,EXPLOTACIÓN AVÍCOLA
6332,6,EXPLOTACIÓN PORCINA FINCA DEHESA DEL REY ,207,"CEFU, S.A.",Castilléjar,Granada,-2.649985,37.717289,Explotación de ganado porcino,EXPLOTACIÓN DE GANADO PORCINO
8698,7,CRÍA Y PRODUCCIÓN AVÍCOLA S.L ,180,"CRÍA Y PRODUCCIÓN AVÍCOLA, S.L",Olombrada,Segovia,-4.219444,41.46,Avicultura,GALLINAS DE PUESTA
8633,8,ES501540000803-GALLINAS-MAINAR ,156,SAT Nº 1733 GRANJA SAN MIGUEL,Mainar,Zaragoza,-1.322743,41.192142,Avicultura,
3771,9,SAT 1511 RESERVADO LA ANDAYA (GRANJA MARTINEZ) ,154,SAT 1511 RESERVADO LA ANDAYA,Tordómar,Burgos,-3.869444,42.054167,Avicultura,AVILCULTURA PONEDORAS
4105,10,GRANJA PINILLA S.L (OLMEDO) ,144,GRANJA PINILLA S.L,Olmedo,Valladolid,-4.736533,41.291547,Avicultura,EXPLOTACIÓN AVICOLA
4546,11,"HUEVOS GUILLÉN NAVARRA, S.L. ",140.238,"HUEVOS GUILLÉN NAVARRA, S.L.",Abárzuza/Abartzuza,Navarra,-2.01886,42.72879,Avicultura,GRANJA AVÍCOLA DE PUESTA
7982,12,"AVICOLA SAN JUAN, S.L. (ANTES FRÍO CLIMA DISEÑO Y DESARROLLO S.L.) ",138.746,"AVICOLA SAN JUAN, S.L. (ANTES FRÍO CLIMA DISEÑO Y DESARROLLO S.L.)",Fuentealbilla,Albacete,-1.5344,39.0585,Avicultura,EXPLOTACIÓN DE 100.000 POLLOS DE CEBO
2673,13,AVÍCOLA LLOMBAY-CATADAU ,138.449,"AVÍCOLA LLOMBAY, S.A.",Catadau,Valencia,-0.570713,39.245641,Avicultura,110000 GALLINAS PARA LA PRODUCCIÓN DE HUEVOS
6294,14,ES221160000851-GALLINAS-GRAÑÉN ,136.6,INTEROVO CALLEN,Grañén,Huesca,-0.363128,41.967069,Avicultura,AVICULTURA
1306,15,GRANJA LA VALL DE SOSES ,120.761,GRANJA LA VALL DE SOSES,Soses,Lleida,0.434707,41.574301,Explotación de ganado porcino,RAMADERA
1379,16,ES222170000001-CERDOS-SENA ,116.395,"CORPORACION ALIMENTARIA DE GUISSONA, S.A.",Sena,Huesca,-0.079824,41.693856,Explotación de ganado porcino,PRODUCCIÓN GANADERA
1107,18,ES500740000129-CERDOS-CASPE ,106.25,PIENSOS COSTA. S.A.,Caspe,Zaragoza,-0.095218,41.296824,Explotación de ganado porcino,Explotación de ganado porcino
4835,19,SIVIMAR-LA CARRASQUILLA ,103.814,SIVIMAR S.L.,Utiel,Valencia,-1.273315,39.607801,Avicultura,PRODUCCIÓN DE AVES DE CARNE
3966,20,EXPLOTACIONES AVICOLAS GARCIA PUENTE S.A. ,102,EXPLOTACIONES AVICOLAS GARCIA PUENTE S.A.,Olmedo,Valladolid,-4.676144,41.2996,Avicultura,Avicultura
8271,21,AVICOLA RIOJA ,100.937,AVICOLA RIOJA,Quel ,Rioja (la),-2.047132,42.260934,Avicultura,Avicultura
6243,22,GRANJA SANTA CRUZ ,100,"MARCO POLO COMERCIO, S.L",Santa Cruz de la Salceda,Burgos,-3.587822,41.577467,Avicultura,CRIA INTENSIVA DE AVES DE CORRAL
4299,23,GRANJA VILLANUEVA ,96.9,"DESARROLLOS PORCINOS DE CASTILLA Y LEÓN, S.L.",Santibañez de la Peña,Palencia,-4.787833,42.756908,01.46 - Explotación de ganado porcino,CRIA INTENSIVA DE GANADO PORCINO
4297,24,GRANJA SAN PEDRO DE CANSOLES ,96.9,"DESARROLLOS PORCINOS DE CASTILLA Y LEÓN, S.L.",San Pedro de Cansoles ,Palencia,-4.915078,42.733589,Explotación de ganado porcino,CRIA INTENSIVA DE GANADO PORCINO
4283,25,GRANJA INTORCISA ,96.9,"DESARROLLOS PORCINOS DE CASTILLA Y LEÓN, S.L.",Guardo,Palencia,-4.808022,42.774083,Explotación de ganado porcino,CRIA INTENSIVA DE GANADO PORCINO
2144,26,GERARDO DE LUCAS S.L.:2144 ,96,GERARDO DE LUCAS,Cabezón de Pisuerga,Valladolid,-4.625375,41.756606,Avicultura,CRÍA INTENSIVA DE AVES DE CORRAL
6310,27,"AVÍCOLA VELASCO, S.L. ",95.8,"AVÍCOLA VELASCO, S.L.",Villacastín,Segovia,-4.430658,40.796794,Avicultura,AVICULTURA DE PUESTA
8624,28,OUS DE PONENT ,95.46,"OUS DE PONENT, S.L.",Bellcaire d'Urgell,Lleida,0.918476,41.739687,Avicultura,EXPLOTACIÓ D'AVIRAM
2405,29,BARBERANA ,95.072,"AGUSTIN ROIG, SA",Tortosa,Tarragona,0.495668,40.829322,Avicultura,Avicultura
1978,30,"ATLÁNTICO 7, S.L. ",94.622,ATLÁNTICO 7,Galdar,Palmas (las),-15.67122,28.14001,Avicultura,AVÍCOLA DE ENGORDE
2695,31,GRANJA PINILLA S.L.:2695(MEGECES) ,93.3,GRANJA PINILLA S.L,Megeces,Valladolid,-4.563219,41.410464,Avicultura,"AVICULTURA DE PUESTA, FÁBRICA DE PIENSOS Y PLANTA CLASIFICADORA"
1350,32,GRANJA L´ERA ,90.687,"AVICOLA GARGANTÉ, SL",Sant Guim de la Plana,Lleida,1.325525,41.762104,Avicultura,GALLINES PONEDORES
1900,33,EXPLOTACION DE POLLOS ENGORDE A PIUCA MACEDA ,89.9,COOPERATIVA LA PIUCA,Maceda,Ourense,-7.690584,42.280539,Avicultura,
2396,34,HERMANOS VILLAR HERNÁNDEZ S.L. ,88.7,HERMANOS VILLAR HERNANDEZ S.L.,Los Rábanos,Soria,-2.480731,41.687728,Explotación de ganado porcino,PORCINO
7107,35,AVÍCOLA GIRBÉS ,88.439,AVÍCOLA GIRBÉS S.A.T. LTDA. 6938,Algemesí,Valencia,-0.428843,39.216819,Avicultura,Avicultura
1907,36,EXPLOTACION DE POLLOS ENGORDE A PONTE RIO ,88,COOPERATIVA A PONTE,Maceda,Ourense,-7.701803,42.272228,Avicultura,
9400,37,PLA DE PINAR S.L ,87.343,PLA DE PINAR S.L,Villa Real,Castellón,-0.087572,39.94841,Avicultura,ENGORDE DE BROILERS DE 102490 PLAZAS
9128,38,AVICOLA VILAMAJO ,86.95,"AVICOLA VILAMAJO, S.L.",Bellpuig,Lleida,0.993593,41.625987,Avicultura,PRODUCCIO D'OUS
4865,39,GANADOS GILI (ALMATRET) ,85.266,GANADOS GILI (ALMATRET),Almatret,Lleida,0.404888,41.354131,Explotación de ganado porcino,EXPLOTACIÓ INTENSIVA DE BESTIAR PORCÍ
9405,40,"HERMANOS RIBES MARAVILLA, S.C.V.L. ",85.2,"HERMANOS RIBES MARAVILLA, S.C.V.L.",Carcaixent,Valencia,-0.45435,39.120175,Avicultura,EXPLOTACION AVICOLA DE ENGORDE
9207,41,GRANJA ROVELL DEL SIO ,85.035,"ROVELL DEL SIO, S.L.","Plans de Sió, Els",Lleida,1.205152,41.746146,Avicultura,AVICULTURA I COMERCIALITZACIÓ D'OUS
3987,42,MARCOPOLO COMERCIO - ALDEAMAYOR DE SAN MARTÍN ,84.8,"MARCO POLO COMERCIO, S.L",Aldeamayor de San Martín,Valladolid,-4.614511,41.501533,Avicultura,HUEVOS DE GALLINA
9283,43,ES441920000807-GALLINAS-PUEBLA DE VALVERDE (LA) ,82.5,"MONTES DEL PALANCIA, S.L.","Puebla de Valverde,La",Teruel,-0.887872,40.223362,Avicultura,AVICULTURA
4106,44,"SAT Nº 1374 GRANJA SAN ANTÓN - GRANJA ""LOS LLANOS"" ANTES COPISO ",82.2,SAT Nº 1374 GRANJA SAN ANTÓN,San Pedro de Manrrique,Soria,-2.227478,42.013081,Explotación de ganado porcino,GANADERA
4586,45,"KUBUS, S.A., VALDELINARES ",82,"KUBUS, S.A.",Olivenza,Badajoz,-7.120833,38.766944,Explotación de ganado porcino,EXPLOTACIÓN PORCINA
7085,46,S.A.T. AGROMAT PARTIDA CASETES ,81.955,AGROMAT,Benlloch,Castellón,0.024135,40.231509,Explotación de ganado porcino,CRÍA INTENSIVA DE CERDOS
2694,47,GRANJA PINILLA S.L.:2694 (ALCAZARÉN) ,81.6,GRANJA PINILLA S.L,Alcazarén,Valladolid,-4.686403,41.380706,Avicultura,CRÍA INTENSIVA DE AVES DE CORRAL
9421,48,AVICOLA RALUMI SLU ,80.855,AVICOLA RALUMI SLU,Valtierra ,Navarra,-1.63194,42.24555,Avicultura,EXPLOTACIÓN AVÍCOLA DE ENGORDE DE POLLOS
658,49,AVICOLAS SALES ,80.661,AVICOLAS SALES,Useras,Castellón,-0.12342,40.162927,Avicultura,"PRODUCCIÓN, CLASIFICACIÓN Y EMBALAJE DE HUEVOS DE GALLINA"
7260,50,EXPLOTACIÓN PORCINA MONTE DE BELEN (EXPORINSA) ,78.867,"EXPLOTACIÓN PORCINA INTEGRAL, S.A.",Osa de la Vega,Cuenca,-2.7726,39.6677,Explotación de ganado porcino,EXPLOTACIÓN PORCINA DE MADRES
7337,51,EXPLOTACIÓN PORCINA (UNIFICADO) HERMANOS MATAS DE HUERTA S.L. ,78.434,HERMANOS MATAS DE HUERTA S.L.,Huerta de Obispalia,Cuenca,-2.487,40.0039,Explotación de ganado porcino,EXPLOTACIÓN PORCINA
1783,52,GRANJA DOS HERMANAS-ETXARREN ,75.269,"GRANJA DOS HERMANAS, S.A.",Arakil,Navarra,-1.84673,42.92788,Explotación de ganado porcino,GANADERIA
1329,53,GRANJA VILELLA & FARIAS ,75.11,"VILELLA & FARIAS, SL",Castelldans,Lleida,0.767226,41.495774,Avicultura,Avicultura
4472,54,"DESARROLLO GANADERO PORCINO, S.A (ANTES GRANJA EL PARAMILLO) ",74.8,DEGAPOR,Melgar de Fernamental,Burgos,-4.304536,42.3857,Explotación de ganado porcino,MADRES CON LECHONES HASTA 20 KG
7423,55,"CEBADERO DE POLLOS PUJANTE, FINCA LA BALSA ",72.786,PUJANTE HERRERO,Torre Pacheco,Murcia ,-1.011064,37.794491,Avicultura,ENGORDE DE POLLOS
1784,56,GRANJA DOS HERMANAS-CAPARROSO ,72.351,"GRANJA DOS HERMANAS, S.A.",Caparroso,Navarra,-1.65052,42.34134,Explotación de ganado porcino,GANADERIA
1377,57,EXPLOTACIO AGROPECUARIA LA VALLETA ,72.25,EXPLOTACIÓ AGROPECUARIA LA VALLETA,Llardecans,Lleida,0.538707,41.390963,Explotación de ganado porcino,RAMADERA
6764,58,HUEVOS LEÓN ,71.1,HUEVOS LEÓN S.L.,San Andres de Rabanedo,León,-5.691389,42.617778,Avicultura,CEBO DE BROILERS
1827,59,"GRANJA LEGARIA, S.A. ",71.072,"GRANJA LEGARIA, S.A.",Levaria,Navarra,-2.17205,42.6507,Avicultura,PRODUCCIÓN DE HUEVOS
6788,60,"SAT Nº 1374 GRANJA SAN ANTÓN. - GRANJA ""LA VENTOSA"" ",69.9,SAT Nº 1374 GRANJA SAN ANTÓN,San Pedro Manrrique,Soria,-2.235111,42.031114,Explotación de ganado porcino,EXPLOTACIÓN PORCINA
398,61,MUESA ,69.828,"INPORBA, S.L.",Ulldecona,Tarragona,0.37457,40.61109,Explotación de ganado porcino,EXPLOTACIÓ INTENSIVA DE BESTIAR PORCÍ (GARRINS)
4079,62,GRANJA SANTA ANA - GENSANA S.XXI (ANTES PIC ESPAÑA) ,68.3,"GENSANA S.XXI, S.L.",Alconaba,Soria,-2.416111,41.747222,Explotación de ganado porcino,GANADERIA PORCINA
1321,63,GRANJA EL PORTELL ,68.29,"BALLESTÉ PAU, SL",Arbeca,Lleida,0.896218,41.567601,Explotación de ganado porcino,RAMADERIA
5436,64,AVIPORTO S.L. ,68.1,AVIPORTO S.L.,Portomarin,Lugo,-7.657468,42.812792,Avicultura,
4474,65,SAT FUENSANTA Nº 6299 ,67.9,SAT FUENSANTA Nº 6299,Peñafiel,Valladolid,-4.130136,41.607436,Avicultura,RECRÍA POLLITAS
1399,66,GRANJA HUGUET ,67.572,"AVÍCOLA HUGUET, SL",Maldá,Lleida,1.01919,41.553236,Avicultura,GALLINES PONEDORES
781,67,EXPORGONDO ,66.6,EXPORGONDO,Abegondo ,Coruña (A),-8.287145,43.176673,Explotación de ganado porcino,
2653,68,HUEVOS ALTO TURIA ,66.282,"HUEVOS ALTO TURIA, S.A.",Yuejar,Valencia,-1.051361,39.775561,Avicultura,PRODUCCIÓN Y EMBALAJE DE HUEVOS. AVICULTURA DE PUESTA.
2118,69,GRANGES DUCH ,66.23,"GRANGES DUCH, S.L.","Garidells, Els",Tarragona,1.25053,41.205453,Avicultura,RAMADERIA
1735,70,GRANJA Nº 2 ,66.054,"CEFU, S.A.",Alhama de Murcia,Murcia ,-1.39,37.85,Explotación de ganado porcino,PRODUCCIÓN DE LECHONES DE 6 KILOS
6381,71,GRANJA FIELATO ,65.971,"SAT LLEDO, Nº 6651",Camaries,Tarragona,0.664778,40.787894,Avicultura,ENGREIX DE GALLS DINDIS
7881,72,AGROPECUARIA BEHER - (LOS JARALES) ,65.4,"AGROPECUARIA BEHER, S.L.",Valdunciel,Salamanca,-5.724628,41.154331,Explotación de ganado porcino,EXPLOTACIÓN PORCINA MIXTA
7787,73,GRANJA GUIXE ,65.268,JOSEP GUIXE CIRERA,Puigverd d'Agramunt,Lleida,1.133325,41.778387,Explotación de ganado porcino,ENGREIX I REPRODUCCIÓ
1875,74,"EXPLOTACIONES AGROPECUARIAS SAKANA, S.L. ",64.543,"EXPLOTACIONES AGROPECUARIAS SAKANA, S.L.",Urdiain,Navarra,-2.135413,42.890334,Avicultura,PRODUCCIÓN DE HUEVOS
3927,75,AGROPOR S.L. ,64.54,AGROPOR S.L.,"Torres de costillas, las",Murcia ,-1.281266,38.01009,Explotación de ganado porcino,VENTA Y CRIA DE LECHONES
67,76,GRANJA EL BENZAL ,64.5,"BELMONSE, S.A.",Pulpi,Almeria,-1.757143,37.412214,Explotación de ganado porcino,01.46 - EXPLOTACIÓN DE GANADO PORCINO
1899,77,EXPLOTACION DE POLLOS ENGORDE A PIÚCA MOREIRAS ,64,COOPERATIVA LA PIUCA,Xinzo de linea,Ourense,-7.674629,42.008774,Avicultura,
6614,78,EXPLOTACION DE POLLOS DE ENGORDE A XIRONDA ,62.5,COOPERATIVA SEOANE,Cualedro,Ourense,-7.652215,41.897733,Avicultura,
6935,79,ES500260000804-GALLINAS-ALPARTIR ,61.7,GRANJA BAILON S.L.,Alpartir,Zaragoza,-1.381141,41.437162,Avicultura,AVICULTURA
3329,80,GRANJA SANCHEZ ,61.344,GASPAR SANCHEZ PARRA,Maldá,Lleida,1.023492,41.549775,Explotación de ganado porcino,PORCS ENGREIX
1364,81,GRANJA RENANT ,61.022,"NOOYEN CATALUNYA, S.L.",Oliola,Lleida,1.163641,41.79162,Explotación de ganado porcino,EXPLOTACIÓ INTENSIVA DE PRODUCCIÓ I ENGREIX DE BESTIAR PORCÍ
2878,82,ES500250000805-GALLINAS-ALMUNIA DE DOÑA GODINA (LA) ,60.9,GRANJA BAILON S.L.,"Almunia de Doña Godina, La",Zaragoza,-1.377512,41.460781,Avicultura,AVICULTURA
1022,83,AAI-GU-037 ,60.436,"DAGU AGROPECUARIA, S.L.",Marchamalo,Guadalajara,-3.2203,40.6714,Avicultura,GRANJA DE GALLINAS PONEDORAS
316,84,TRUGES MONTAGUT ,59.882,"AGROLERIDA, S.A.",Alcarras,Lleida,0.502571,41.643138,Explotación de ganado porcino,RAMADERA
4164,85,HERMANOS OBLANCA - GRANJA SAN FRANCISCO ,59.1,"HERMANOS OBLANCA, S.L.",Villalón de Campos,Valladolid,-5.026944,42.100556,Avicultura,AVICULTURA
2272,86,GRANJA PLANA I MARSINACH ,59.044,"PIERA Y MARSA, SCP",Vilanova de la  barca,Lleida,0.741193,41.692073,Explotación de ganado porcino,ENGREIX DE PORCS
1256,87,TRUGES VALLMANYA ,58.896,EXPLOTACIONS AGRICOLES TORRE CORTASA,Alcarras,Lleida,0.427484,41.629323,Explotación de ganado porcino,EXPLOTACIÓ DE PORCÍ DE CICLE TANCAT
2276,88,GRANJA ESPINET ,58.8,GRANJA AVICOLA ESPINET,Benavent de sagrià,Lleida,0.644117,41.698431,Avicultura,ENGREIX DE POLLASTRES
6462,89,ALDOVER ,58.16,"AGUSTIN ROIG, SA",Aldover,Tarragona,0.506292,40.862864,Avicultura,GALLINES PONEDORES
8085,90,"EXPLOTACIÓN GANADERA EL HAREM, S.L ",57,"EXPLOTACÍON GANDERA EL HAREM, S.L",Castraz,Salamanca,-6.295556,40.697778,Explotación de ganado porcino,CERDAS REPRODUCTORAS
4059,91,LA PLANTA ,56.6,S.A.T. 321 LA PLANTA,Torrescárcela,Valladolid,-4.362244,41.463278,Explotación de ganado porcino,CRÍA INTENSIVA PORCINO
4441,92,AGROPECUARIA BEHER - LOS VALHONDOS (PELAYOS) ,56.1,"AGROPECUARIA BEHER, S.L.",Prlayos,Salamanca,-5.576667,40.691917,Explotación de ganado porcino,EXPLOTACIÓN DE GANADO PORCINO IBÉRICO DE CICLO MIXTO
9094,93,GRANJA TERO ,54.502,CAMIBERT 2000 SL,Juneda,Lleida,0.864575,41.553818,Explotación de ganado porcino,RAMADERA PORCIONA EN CICLE TANCAT
8774,94,"ALBESA RAMADERA, SL ",54.219,"ALBESA RAMADERA, SL",Albesa,Lleida,0.648971,41.775734,Explotación de ganado porcino,
8849,95,GRANJA CAU-BARRUFET ,54.186,RAMADERIES MIQUELO SL,Puiggròs ,Lleida,0.881331,41.552877,Explotación de ganado porcino,
5675,96,GRANJA SERENTILL ,53.365,"AGRÍCOLA RAMADERA SERENTILL, SL",Aitona,Lleida,0.408107,41.494159,Explotación de ganado porcino,
9530,97,AGROPECUARIA LA SERROTA - HERREROS DE SUSO ,53.3,"AGROPECUARIA LA SERROTA, S.L.",Herreros de Suso,Avila,-5.051644,40.819072,Explotación de ganado porcino,
7419,98,CEBADERO PORCINO LOS PATIOS ,53.154,ANJOPAL,Fuente Alamo de Murcia,Murcia,-1.183949,37.707387,Explotación de ganado porcino,
8395,99,GANADOS GILI (SERÒS) ,53.028,"GANADOS GILI, SA",Seròs,Lleida,0.409425,41.375352,Explotación de ganado porcino,
9223,100,AGROEBRE ,52.954,EXPLOTACIONES GANADERAS ESTICHE S.L.,"Avellanes i Santa Linya, Les",Lleida,0.773836,41.856097,Explotación de ganado porcino,
1249,101,VENTACHICA 800 ,52.5,"PIENSOS JIMÉNEZ, S.L.",Jaen,Jaen,-3.783426,37.767283,Explotación de ganado porcino,
7311,102,SANJOPOR S.L. ,52.418,"SANJOPOR, S.L.",Mesalvas,Toledo,-4.2975,39.6787,Explotación de ganado porcino,
9414,103,NAVAGESPROY POLLOS (RIBAFORADA) ,51.99,NAVAGESPROY SL,Ribaforada ,Navarra,-1.52833,41.98222,Avicultura,
7883,104,SAT AVIPORK ,51.7,"S.A.T. AVIPORK, S.C.L.L",Madrigalejo del Monte,Burgos,-3.734167,42.144722,Explotación de ganado porcino,
5969,105,"GRANJA SAN ROMÁN, S.L. ",51.695,"GRANJA SAN ROMÁN, S.L.",Guirguillano,Navarra,-1.878205,42.72444,Avicultura,
2709,106,GRANJA SOLER ,51.663,NOELIA TRISAC RODRIGUEZ,Soses,Lleida,0.471341,41.560591,Explotación de ganado porcino,
1271,107,GRANJA YAK ,51.569,"YAK FABRICA DE PIENSOS COMPUESTOS, S.L.",Sant Guim de Freixenet,Lleida,1.419258,41.644204,Avicultura,
1903,108,GRANJA DE CERDOS CURRELOS Y PALELA ,51.2,COOPERATIVA SEOANE,Maceda,Ourense,-7.575747,42.291247,Explotación de ganado porcino,
1292,109,GRANJA MATGES DOLCET (7910CJ) ,51.12,"MATGES DOLCET, SL",Soses,Lleida,0.476571,41.55868,Explotación de ganado porcino,
8712,110,AAI-AB-068 EXPLOTACIÓN AVÍCOLA DE CEBO ,50.95,"TOLOSA Y VALIENTE, S.A.",Casas-Ibañez,Albacete,-1.471266,39.286714,Avicultura,
8428,111,PORDECONA ,50.67,"PORDECONA, SL",Uldecona,Tarragona,0.424859,40.661065,Explotación de ganado porcino,
1369,112,MAS SANT SEBASTIA ,50.571,"CERCLE TANCAT, SL","Borges Blanques, Les",Lleida,0.792814,41.537674,Explotación de ganado porcino,
3151,113,GRANJA ROVIRA. ,50.543,GRANJA DANIEL,Avinyó,Barcelona,1.9639,41.859701,Explotación de ganado porcino,
9149,114,AVÍCOLA MELENDRES 2 ,50.4,LA TORRETA PECUARIA SL,Castelló de Farfanya,Lleida,0.726927,41.786742,Avicultura,
1244,115,HACIENDA MENDOZA ,50.1,"PIENSOS JIMÉNEZ, S.L.",Baeza,Jaen,-3.551824,37.917572,Explotación de ganado porcino,
5414,116,ALBERTO VAZQUEZ VAZQUEZ ,50,ALBERTO VAZQUEZ VAZQUEZ,Carballedo,Lugo,-7.85064,42.56915,Avicultura,
1718,117,GRANJA CASA SABAS ,49.846,"CEFU, S.A.",Hellín,Albacete,-1.5517,38.3574,Explotación de ganado porcino,
62,118,"FILO-PORC, S.L.- LOS PROPIOS ",49.5,"FILO-PORC, S.L",Huercal_Overa,Almeria,-1.876724,37.388967,Explotación de ganado porcino,
1705,119,CARNICAS ,49.336,CARNICAS,Cabezo de Torres,Murcia,-1.143023,38.057067,Explotación de ganado porcino,
4863,120,LES SERRES ,49.29,"GINPIG SERVICE, SL",Anglés,Girona,2.671544,2.671544,Explotación de ganado porcino,
6611,121,EXPLOTACION PORCINA CANAL E FUCIÑOS ,49.2,COOPERATIVA ALTAPEDRA,Sarreaus,Ourense,-7.802105,41.990739,Explotación de ganado porcino,
2300,122,GRANJA CAPDEVILA TORRENT ,49.076,"CAPDEVILA TORRENT RAMADERS, S.L.",Alcarràs,Lleida,0.401869,41.639464,Explotación de ganado porcino,
7829,123,ES221630000851-GALLINAS-NUENO ,48.8,INTEROVO AVICOLA HUESCA,Nueno,Huesca,-0.451236,42.234637,Avicultura,
4032,124,CARDONA Y VELASCO AVÍCOLA S.L. ,48.7,CARDONA Y VELASCO AVÍCOLA S.L.,Pedrajas de San Esteban,Valladolid,-4.595256,41.330108,Avicultura,
3278,125,GRANJA LAS BEATAS ,48,IGNACIO MAZA RODRÍGUEZ,Alacalá de Guadaira,Sevilla,-5.814238,37.376629,Explotación de ganado porcino,
527,126,HERMANOS VENTURA MIRÓN S.C. ,47.973,HERMANOS VENTURA MIRÓN S.C.,Acehúche,Caceres,-6.633866,39.802567,Avicultura,
6493,127,GUBA MARENYA ,47.912,"GRANGERS UNITS B.A., SL","Tallada d'Empordà, La",Girona,3.055442,42.094367,Explotación de ganado porcino,
5988,128,CEFU S.A. - FINCA PINO GRANDE ,47.7,"CEFU, S.A.",Guadix,Granada,-3.133338,37.300608,Explotación de ganado porcino,
2813,129,ES502920000803-GALLINAS-VILLARREAL DE HUERVA ,47.587,SAT Nº 1733 GRANJA SAN MIGUEL,Villareal de Huerva,Zaragoza,-1.292068,41.1887,Avicultura,
8045,130,"SAINZ RUIZ, S.L. ",46.791,"SAINZ RUIZ, S.L.",Valle de Yerri/Deierri,Navarra,-2.035,42.718056,Avicultura,
1902,131,GRANJA DE CERDOS CEBO VALILONGO OS CHAOS ,46.7,COOPERATIVA SEOANE,Montedeurramo,Ourense,-7.495446,42.315276,Explotación de ganado porcino,
9129,132,GRANAJ ROSINACH ,46.62,"GRANJA ROSINACH, S.C.C.L.",Juneda,Lleida,0.855516,41.566709,Avicultura,
2450,133,AGROPECUARIES BONFILL ,46.506,AGROPECUARIES BONFILL SL,Godall,Tarragona,0.512476,40.688815,Avicultura,
7870,134,FINCA NOGUEZ ,46.3,"SIERRA DEL PIMPOLLAR, S.L",Ledesma,Salamanca,-6.041342,41.106003,Explotación de ganado porcino,
8907,135,GERMANS SUNYER RAMS SAT ,46.2,"GERMANS SUNYER RAMS, SAT",Batea,Tarragona,0.302941,41.095763,Avicultura,
6449,136,GRANJA SANT BERNABÉ ,46.015,"AGROPECUARIA SANT BERNABÉ, SCP",Odèana,Barcelona,1.667111,41.618417,Explotación de ganado porcino,
9493,137,GRANJA ELS MASOS ,46.008,"GRUPO PREMIER PIGS, SL",La Granadella ,Lleida,0.626955,41.365988,Explotación de ganado porcino,
9089,138,EXPLOTACIONS LA FLORESTA ,46.008,EXPLOTACIONS LA FLORESTA SCP,La Floresta,Lleida,0.909213,41.518848,Explotación de ganado porcino,
8834,139,"BAOMELL 2000, S.L. ",46.008,"BAOMELL 2000, SL","Omellons, Els",Lleida,0.962608,41.490292,Explotación de ganado porcino,
8790,140,GRANJA AGROPECUARIA ARBEQUINA ,46.008,S.L. AGROPECUARIA ARBEQUINA,Arbeca,Lleida,0.924999,41.529581,Explotación de ganado porcino,
8786,141,GRANJA GESCASER ENGREIX ,46.008,"GESCASER, S.A.",Almacelles,Lleida,0.487345,41.744095,Explotación de ganado porcino,
3020,142,EXPLOTACIONES URME ,46.008,"AGRICULTURA I RAMADERIA FERRERES PÉREZ, SL",Uldecona,Tarragona,0.412975,40.616596,Explotación de ganado porcino,
2320,143,GRANJA SANGAL ,46.008,RAMON FRANCISCO SABATE BLADE I AMPARO MORESO BENAIGES,Rasequra,Tarragona,0.629467,40.991732,Explotación de ganado porcino,
2261,144,GRANJA LES ERES ,46.008,ISMAEL HUGUET GILI,Preixens,Lleida,1.045591,41.791612,Explotación de ganado porcino,
2211,145,GRANJA PEDROS JOVE ,46.008,RAMADERIA PEDROS SL,Ivars d'Urgell,Lleida,0.949047,41.693405,Explotación de ganado porcino,
1323,146,GRANJA HUGUET ,46.008,ROGER HUGUET GINÉ,Montgai,Lleida,0.989749,41.801366,Explotación de ganado porcino,
315,147,AGROLERIDA ,46.008,"AGROLERIDA, S.A.",Alcarrás,Lleida,0.50215,41.640833,Explotación de ganado porcino,
8772,148,GRANJA JAUME SERENTILL CAMÍ ,46.004,EL TARANNA FAMILIAR SL,Aitona,Lleida,0.408823,41.49422,Explotación de ganado porcino,
1358,149,GRANJA ASPRES ,45.815,"GREGORI SALSE, SCP",Áger,Lleida,0.755075,41.943452,Explotación de ganado porcino,
4182,150,COOPERATIVA NSTRA SRA DE LA ASUNCION ,45.8,COOPERATIVA NSTRA SRA DE LA ASUNCION,Abía de las Torres ,Palencia,-4.410381,42.421831,Avicultura,
4888,151,"BERGADA TORRES, SA ",45.709,"BERGADA TORRES, SA",Pontils,Tarragona,1.383944,41.484998,Explotación de ganado porcino,
8832,152,COR DE ROURE ,45.497,RAMON MASCARÓ BADIA,Olius,Lleida,1.526341,41.971208,Explotación de ganado porcino,
1796,153,"GRANJA LOS ALECOS, S.L.-SANGÜESA ",45.417,GRANJA LOS ALECOS S.L.,Sangüesa/Zangoza,Navarra,-1.28138,42.57708,Explotación de ganado porcino,
2295,154,GRANJA LLOVERA ALTISENT ,45.369,IGNACIO PASCUAL LLOVERA (ABANS MANUEL PASCUAL BERNAUS),Térmens,Lleida,0.786664,41.722926,Explotación de ganado porcino,
8997,155,GRANJA LAS CASICAS ,45.333,"EXPLOTACIONES PORCINAS HERMANOS GUERRERO, S.L.",Sucina,Murcia,-0.945409,37.912972,Explotación de ganado porcino,
1958,156,HUEVOS DEL CAMPO S.L. ,45.3,HUEVOS DEL CAMPO,Meneses de campo,Palencia,-4.919414,41.944978,Avicultura,
7959,157,GRANJA HORTS D´EN TALOI ,45.061,"GRANGES AYATS, C.B.",Lladó,Girona,2.810008,42.244509,Explotación de ganado porcino,
8501,158,"JESÚS DEL RÍO, S.L ",44.9,"JESÚS DEL RÍO, S.L",Pinarejos,Segovia,-4.312197,41.250028,Avicultura,
7042,159,"MELFEJO, S.L (ANTES HNOS. BLÁZQUEZ GUTIÉRREZ) ",44.9,"MELFEJO, S.L",Collado de Contreras,Avila,-4.946336,40.897622,Avicultura,
8903,160,GERMANS LLAURADÓ FERRÉ ,44.838,GRANGES GERMANS LLAURADO FERRE SCP,Riudoms,Tarragona,1.075002,41.127678,Avicultura,
8500,161,"GRANJA EL PARRO-LAS CUATRO JJJJ, S.L-FUENTESTRÚN ",44.2,"EXPLOTACIÓN LAS 4 JJJJ, S.L.",Fuentestrún,Soria,-2.078889,41.891528,Explotación de ganado porcino,
4314,162,MARÍA ÁNGELES JIMÉNEZ RUIZ ,44.2,"JIMÉNEZ RUIZ, MARIA ÁNGELES",Fuentestrún,Soria,-2.079092,41.86675,Explotación de ganado porcino,
9092,163,GRANJA URGELL ,44.131,"GRUPO PREMIER PIGS, SL",La Granadella,Lleida,0.659411,41.369355,Explotación de ganado porcino,
1742,164,CASABLANCA ,44.118,"DALLAND HYBRID ESPAÑA, S.A",Abanilla,Murcia,-1.041186,38.138916,Explotación de ganado porcino,
9102,165,"AGRESVER, SL ",44.1,"AGRESVER, SL","Plans de Sió, Els",Lleida,1.180185,41.741953,Avicultura,
9732,166,GRANGES ARMENGOL 2 ,44.091,ANTONI ARMENGOL CAPDEVILA,Albesa,Lleida,0.674553,41.77793,Explotación de ganado porcino,
4882,167,GRANJA SAN FRANCISCO ,43.95,"AGROPECUARIA GRAMAT, S.L.",Torregrosa,Lleida,0.75662,41.580834,Explotación de ganado porcino,
9812,168,EXPLOTACIÓN AVÍCOLA DE POLLO DE ENGORDE ,43.9,"EXPLOTACIÓN AVÍCOLA VILLAMARTÍN 1, S.L.",Villamartín,Cádiz,-5.61,36.843,Avicultura,
8779,169,GRANJA ALBERT MATGES ,43.868,VIAPORC SL,Alcarrás ,Lleida,0.484101,41.65221,Explotación de ganado porcino,
4862,170,GRANJA MAS BLANCH ,43.852,"SELECCIÓ BATALLÉ, S.A.",Montagut i Oix,Girona,2.58027,42.211206,Explotación de ganado porcino,
8242,171,FIDENCIO MARTÍN ANIBARRO MOVILLA ,43.7,FIDENCIO MARTÍN ANIBARRO MOVILLA,"Pedraja de Portillo, La",Valladolid,-4.685733,41.487483,Avicultura,
3314,172,GRANJA SAURA ,43.679,"LA DEVESA RAMADERA, SL",Artesa de Segre,Lleida,1.100132,41.922787,Explotación de ganado porcino,
8235,173,NAVEROS MI-ALON SOCIEDAD COOPERATIVA ,43.6,NAVEROS DE MI-ALON SOCIEDAD COOPERATIVA,Herrera de Pisuerga ,Palencia,-4.26575,42.473414,Avicultura,
4449,174,"GRANJAS SAGREDO, S.A. ",43.6,GRANJAS SAGREDO,Bribiesca,Burgos,-3.334056,42.570722,Avicultura,
8386,175,GRANJA ELENA LORENTE ,43.54,RAMADERIA TERRAPLE SL,Aitona,Lleida,0.413396,41.493692,Explotación de ganado porcino,
9516,176,EXPLOTACIÓN AVÍCOLA DE CEBO ,43.325,CONSTRUCCIONES ILDANENSES S.L.,Ledaña,Cuenca,-1.72659,39.3871,Avicultura,
9087,177,GRANJA MELENDRES ,43.047,LA TORRETA PECUARIA SL,Castelló de Farfanya,Lleida,0.72629,41.785009,Explotación de ganado porcino,
6438,178,GRANJA ABELLANA ,42.901,"GRUPO PREMIER PIGS, SL",Puigverd d'Agramunt,Lleida,1.138931,41.792564,Explotación de ganado porcino,
7360,179,"AGROIBÉRICOS DE RAZA, S.L. ",42.885,"AGROIBÉRICOS DE RAZA, S.L.",Malpica de Tajo,Toledo,-4.5962,39.6846,Explotación de ganado porcino,
6445,180,GRANJA EL RAMONILLO ,42.174,"GRUPO PREMIER PIGS, SL",Puigverd d'Agramunt,Lleida,1.09152,41.730328,Explotación de ganado porcino,
9057,181,"EXPLOTACIÓN LAS 4 JJJJ, S.L. LLANO DE LAS CABRAS ",41.8,"EXPLOTACIÓN LAS 4 JJJJ, S.L.",Fuentestrún,Soria,-2.091042,41.895197,Explotación de ganado porcino,
7890,182,NILASA (GUTIERRE-MUÑOZ) ,41.8,NILASA,Gutierre-Muñoz,Avila,-4.621864,40.976606,Explotación de ganado porcino,
7887,183,"NILASA, S.A (EL SOTO II) ",41.8,NILASA,Gutierre-Muñoz,Avila,-4.686792,41.008489,Explotación de ganado porcino,
4230,184,BERNUY DE SOTOPALACIOS ,41.8,VALDELOBOS S.L.,Madrona,Segovia,-4.205364,40.908342,Explotación de ganado porcino,
2260,185,AGRORAMBAL ,41.661,"AGRORAMBAL, S.L.",Miralcamp,Lleida,0.928722,41.596539,Explotación de ganado porcino,
2158,186,SANCHO DEL RIO SCA:2158 ,41.6,SANCHO DEL RIO,Samboal,Segovia,-4.415556,41.2875,Explotación de ganado porcino,
8539,187,SC AREJULA SORET EDUARDO Y JUAN CARLOS BARCOS ZAPATER M PILAR Y SANCHEZ HERNANDEZ ANA ISABEL ,41.592,SC AREJULA SORET EDUARDO Y JUAN CARLOS BARCOS ZAPATER M PILAR Y SANCHEZ HERNANDEZ ANA ISABEL,Villafranca,Navarra,-1.72,42.28,Avicultura,
7093,188,AVICOPE ,41.592,AVICOPE,Jérica,Castellón,-0.534366,39.902812,Avicultura,
3612,189,AVÍCOLA BENISANO ,41.592,"AVÍCOLA BENISANO, S.L.",Benisanó,Valencia,-0.574719,39.61379,Avicultura,
2071,190,GRANJA VIDAL ,41.535,"COMERCIAL SALVI, S.A.",Caldes de Montbui,Barcelona,2.168577,41.608817,Explotación de ganado porcino,
487,191,GRANJA GUARDIOLA ,41.535,S.A.T. LA BRUGUERA 5197 CAT,Sant Salvador de Guardiola,Barcelona,1.768831,41.689344,Explotación de ganado porcino,
4233,192,"RODRISA CAPITAL, S.L. ",41.5,"RODRISA CAPITAL, S.L.",Pesquera de Duero,Valladolid,-4.246667,41.675,Explotación de ganado porcino,
3146,193,GRANJA NOVIPORC ,41.267,"NOVIPORCI, S.L.",Tortosa,Tarragona,0.506801,40.754323,Explotación de ganado porcino,
8778,194,GRANJA MATGES DOLCET (0230YM) ,41.239,"MATGES DOLCET, SL",Alcarrás ,Lleida,0.479317,41.644648,Explotación de ganado porcino,
7577,195,"FRANCISCO JÍMENEZ SÁNCHEZ Y OTROS, C.B. (LA CAPELLANÍA) ",41.2,"FRANCISCO JÍMENEZ SÁNCHEZ Y OTROS, C.B. (LA CAPELLANÍA)",Villamanrrique de la Condesa,Sevilla,-6.306281,37.248657,Avicultura,
4141,196,AVES SEGOVIA S.L. ,41.2,AVES SEGOVIA S.L.,Tordesillas,Valladolid,-4.912206,41.530728,Avicultura,
7684,197,MARCOPOLO COMERCIO - GRANJA OLMEDO ,40.9,"MARCO POLO COMERCIO, S.L",Olmedo,Valladolid,-4.658117,41.300244,Avicultura,
6791,198,AVICOGAN ,40.8,AVICOGAN,Villanueva de Gomez,Avila,-4.734861,40.886764,Explotación de ganado porcino,
8787,199,GRANJA LA GRALLA ,40.768,JOSEP PUJOL LLURDA,Almacelles,Lleida,0.440652,41.753196,Explotación de ganado porcino,
2179,200,GRANJA CAN GIRONES ,40.73,"PUIG GIFREU, S.C.P.",Cornellá del terrí,Girona,2.829126,42.076935,Explotación de ganado porcino,
1770,201,"GRANJA VILLANUEVA, S.A.-CUATRO CAMINOS ",40.623,"GRANJA VILLANUEVA, S.A.",Artajona,Navarra,-1.787252,42.600545,Explotación de ganado porcino,
5964,202,GRANJA COLUBI-LARA ,40.6,"COLUBI-LARA, S.L.",Torrecilla del Monte,Burgos,-3.653283,42.088928,Explotación de ganado porcino,
896,203,GRANJA BADIA ,40.582,"SELECCIÓ BATALLÉ, S.A.",Santa Pau,Girona,2.604938,42.135688,Explotación de ganado porcino,
1851,204,"GRANJA BELASCOAIN, S.L. ",40.515,"GRANJA BELASCOAIN, S.L.",Belascoain,Navarra,-1.83064,42.75842,Explotación de ganado porcino,
5361,205,EXPLOTACION PORCINA CAPRICHO ,40.431,"JUAN JIMENEZ GARCIA, S.A.",Lorca,Murcia,-1.688374,37.711859,Explotación de ganado porcino,
1771,206,"GRANJA VILLANUEVA, S.A.- CINCO JOTAS ",40.357,"GRANJA VILLANUEVA, S.A.",Artajona,Navarra,-1.76244,42.59115,Explotación de ganado porcino,
1328,207,GRANJA PONS I MITJANS ,40.257,"EXPLOTACIONS 5800, S.L.",Bellvis,Lleida,0.831943,41.676102,Explotación de ganado porcino,
7105,208,"PORCAVES 2011, COOP.V. ",40.087,"PORCAVES 2011, COOP.V.",Benlloch,Castellón,-0.055994,40.001751,Avicultura,
2708,209,AGROPECUARIAS CASARES S.L. ,39.9,AGROPECUARIA CASARES,Pollos,Valladolid,-5.100706,41.425794,Explotación de ganado porcino,
3157,210,AVICOLA SANTASUSANA ,39.829,"AVÍCOLA SANTASUSANA, SL",Valsareny,Barcelona,1.869344,41.863875,Avicultura,
8269,211,"VEGAYLAR, S.L ",39.8,VEGAYLAR SL,Dueñas,Palencia,-4.533017,41.866819,Avicultura,
8201,212,AGROPECUARIA DE CALERUEGA S.L ,39.8,"AGROPECUARIA DE CALERUEGA, S.L.",Caleruega,Burgos,-3.516178,41.799617,Explotación de ganado porcino,
1361,213,GRANJA MAS ROIG ,39.761,"ROVOSPA, S.L.",Torrefeta,Lleida,1.178216,41.790303,Explotación de ganado porcino,
4011,214,LARRAZ-EL HOYO ,39.5,"LÓPEZ TOMÉ, LEOPOLDO, FERNANDO Y FERMIN, S.C.",Quintanilla del Agua y Tordueles,Burgos,-3.485833,42.053611,Explotación de ganado porcino,
8622,215,GRANJA BASSA NOVA (9120DN) ,39.432,BASSA NOVA S.L.,Villanueva de la Barca,Lleida,0.759871,41.685468,Explotación de ganado porcino,
1393,216,GRANJA TOJOLA ,39.432,"RIUVARBEL, SL",Sant Martí de Riucorb,Lleida,1.025678,41.588203,Explotación de ganado porcino,
8061,217,"INTEGRACIONES PORCINAS EL CAMPILLO, S.L ",39.339,"INTEGRACIONES PORCINAS EL CAMPILLO, S.L.",Consuegra,Toledo,-3.6924,39.488,Explotación de ganado porcino,
7991,218,"HERMANOS MATAS DE HUERTA, S.L. - PARAJE LAS HONTANILLAS- ",39.339,HERMANOS MATAS DE HUERTA S.L.,Huerta de la Obispalía ,Cuenca,-2.4603,39.7963,Avicultura,
7288,219,"TOJILOR S.L. EXPLOTACIÓN ""HORNAGUERA"" ",39.339,TOJILOR S.L.,Malpica de Tajo,Toledo,-4.579,39.6933,Explotación de ganado porcino,
7286,220,"AGROPECUARIA LOS GIRASOLES, S.L. ",39.339,"AGROPECUARIA LOS GIRASOLES, S. L.",Malpica de Tajo,Toledo,-4.6292,39.7111,Explotación de ganado porcino,
7276,221,RECRÍA DE GANADO TESTADO S.L. (REGATES) (AAI-TO-113) ,39.339,"RECRÍA DE GANADO TESTADO, S.L. (REGATES)",Consuegra,Toledo,-3.7664,39.3257,Explotación de ganado porcino,
5646,222,"JUCAMPA, C.B. ",39.339,"JUCAMPA, C.B.",Barcience,Toledo,-4.2171,39.9852,Explotación de ganado porcino,
5594,223,TOJILOR S.L. PARAJE HORNAGUERA ALTO ,39.339,TOJILOR S.L.,Malpica de Tajo,Toledo,-4.5891,39.8938,Explotación de ganado porcino,
3616,224,DANIEL GIL GÓMEZ ,39.339,DANIEL GIL GÓMEZ,Utiel,Valencia,-1.224911,39.597224,Explotación de ganado porcino,
6458,225,GRANJA LLAGOSTERA ,39.268,"GRUP BAUCELLS ALIMENTACIÓ, SL",Llagostera,Girona,2.856417,41.815631,Explotación de ganado porcino,
7994,226,"EXPLOTACIONES AGROPARDAL, S. L. ",39.248,"EXPLOTACIONES AGROPARDAL, S. L.",Albareal de Tajo,Toledo,-4.2304,39.6938,Explotación de ganado porcino,
8594,227,GRANJA PARRACOLL ,39.2,"GRANJA PARRACOLL, S.C.C.L.","Perello, el ",Tarragona,0.730356,40.885994,Avicultura,
7857,228,GRANXA DE GALIÑAS POÑEDORAS-TOEN ,39.2,RODRIGUEZ FERNANDEZ&CASANOVA FRANCO C.B,Toén,Ourense,-7.95142,42.31983,Avicultura,
5570,229,AGRÍCOLA GANADERA HERMANOS LÓPEZ S.L. (AAI-TO-130) ,39.136,AGRÍCOLA GANADERA HERMANOS LÓPEZ S.L.,Calera y Chozas,Toledo,-5.0518,39.834,Explotación de ganado porcino,
4480,230,ES500250000807-GALLINAS-ALMUNIA DE DOÑA GODINA (LA) ,39,GRANJA BAILON S.L.,"Almunia de Doña Godina, La",Zaragoza,-1.379866,41.45378,Avicultura,
6291,231,SCA MUNARRIZ LA Y DIEZ BARBARIN M ,38.896,SCA MUNARRIZ LA Y DIEZ BARBARIN M,Valle de Yerri/Deierri,Navarra,-2.03111,42.67453,Avicultura,
834,232,GRANJA DOSQUERS ,38.85,"INPRA, S.A.",Mailá del Montcal,Girona,2.760788,42.199161,Avicultura,
9136,233,GRANJA NATURA HORTA ,38.808,"AGUSTIN ROIG, SA",Horta de Sant Joan,Tarragona,0.284144,40.930231,Avicultura,
7254,234,FINCA LA GITANA AAI-TO-050 ,38.792,"PIGLETS, S.L.",Alcolea de Tajo,Toledo,-5.1462,39.9147,Explotación de ganado porcino,
2410,235,RUSTICAS FAIGES ,38.784,AGROPECUARIA VIGILPUJOL SL,Roquetas ,Tarragona,0.486321,40.795518,Explotación de ganado porcino,
7312,236,GRANJAS INIESTA S.C.L. II. ,38.774,"GRANJAS INIESTA, S.C.L.",Iniesta,Cuenca,-1.7525,39.4759,Explotación de ganado porcino,
7200,237,EL CANTO AGROALIMENTARIA ,38.597,"EL CANTO AGROALIMENTARIA, S.L.",Almonacid de Toledo,Toledo,-3.83,39.6883,Avicultura,
3796,238,"INVERSIONES JOFER, S.L.- FINCA TURRA ",38.5,"INVERSIONES JOFER, S.L.",Mozarbez,Salamanca,-5.753889,40.8625,Explotación de ganado porcino,
9321,239,SOCARRA ,38.399,COOPERATIVA VALENCIANA,La salzadella,Castellon,-0.055994,40.001751,Explotación de ganado porcino,
9760,240,GRANJA ROSELLÓ ,38.34,AGROPECUARIA ROSELLÓ SCP,Guimerà,Lleida,1.166262,41.581886,Explotación de ganado porcino,
7348,241,JAVIER MORA JIMÉNEZ ,38.3,JAVIER MORA JIMÉNEZ,Mascaraque,Toledo,-3.8378,39.5394,Explotación de ganado porcino,
4170,242,JOSE LUIS SANTOS GARCIA S.A. MEDINA DEL CAMPO ,38.3,"JOSÉ LUIS SANTOS GARCÍA, S.L.",Medina del Campo,Valladolid,-4.873611,41.325,Explotación de ganado porcino,
4039,243,AGROPECUARIA LA SERROTA - SANTA MARÍA DEL ARROYO ,38.3,"AGROPECUARIA LA SERROTA, S.L.",Santa María del Arroyo,Avila,-4.933981,40.590119,Explotación de ganado porcino,
7979,244,GABRIEL RODRÍGUEZ MARTÍN ,38.277,GABRIEL RODRÍGUEZ MARTÍN,Santo Domingo Caudilla,Toledo,-4.3469,39.8161,Avicultura,
7230,245,MANFRUPOR II. ,38.246,MANFRUPOR S.L.,Galvez,Toledo,-4.3066,39.7499,Explotación de ganado porcino,
6289,246,"GRANJA TXAPARDUIA, S.L. ",38.126,"GRANJA TXAPARDUIA, S.L.",Améscoa Baja,Navarra,-2.13213,42.77503,Avicultura,
2567,247,AGROTIS PÉREZ S.L. ,38.126,"AGROTIS PÉREZ, S.L.",Calera y Chozas,Toledo,-5.0256,39.8448,Explotación de ganado porcino,
4594,248,"GRANJAS CANTOS BLANCOS SUR S.L., CAMPO VIEJO ",38.105,"GRANJAS CANTOS BLANCOS SUR, S.L.",Almendralejo,Badajoz,-6.405567,38.686954,Avicultura,
8115,249,PORCICAS ,38.099,PORCICAS,Venta del Moro,Valencia,-1.251774,39.722239,Explotación de ganado porcino,
4560,250,MARCOPOLO COMERCIO - MELGAR DE FERNAMENTAL ,38,"MARCO POLO COMERCIO, S.L",Melgar de Fernamental,Burgos,-4.29875,42.436517,Avicultura,
4444,251,"JADIGA ACTIVIDADES, S.L. ",37.9,JADIGA ACTIVIDADES,Villalba de la Loma,Valladolid,-5.1948,42.18995,Explotación de ganado porcino,
6487,252,FRANCESC TRIBO ,37.865,FRANCESC TRIBO DALMAU,"Palau d'Anglesola, El",Lleida,0.874882,41.644234,Explotación de ganado porcino,
8906,253,GRANJA SERRA DOMENECH ,37.8,"AGRO MONTLLEU, S.L.",Artesa de Lleida,Lleida,0.678124,41.557156,Avicultura,
5194,254,FINCA LAS ZORRERAS ,37.8,CALLEJA Y FERNÁNDEZ C.B.,Beas,Huelva,-6.799036,37.409488,Avicultura,
6469,255,GRANJA VILALTA (CASTELLNOU DE SEANA) ,37.723,"VILALTA RAMADERS, S.L.",Castellnou de Seana,Lleida,0.957926,41.650514,Explotación de ganado porcino,
1347,256,BON PORC ,37.703,"BON PORC, S.L.",Isona,Lleida,1.080892,42.146973,Explotación de ganado porcino,
7986,257,"PIGLETS, S.L. ",37.7,"PIGLETS, S.L.",Alcolea de Tajo,Toledo,-5.0995,39.6372,Explotación de ganado porcino,
8485,258,EXPLOTACIÓN PORCINA EL MOCHUELO ,37.699,INTEGRALOR SOCIEDAD COOPERATIVA,Lorca,Murcia,-1.705536,37.762954,Explotación de ganado porcino,
8598,259,PUNSIC II ,37.656,"GRANGES TERRAGRISA, S.L.U.",Avinyó,Barcelona,1.986538,41.898541,Explotación de ganado porcino,
7113,260,"DIVISION DE INVERSIONES AGRICOLAS Y GANADERAS, S.L. ",37.632,"DIVISION DE INVERSIONES AGRICOLAS Y GANADERAS, S.L.",Ayora,Valencia,-1.141981,39.008054,Explotación de ganado porcino,
8215,261,NEW PORC CASTILLA S.L. (SAN CEBRIÁN DE CASTRO) ,37.6,NEW PORC CASTILLA S.L.,San Cebrian de Castro,Zamora,-5.767286,41.678422,Explotación de ganado porcino,
7878,262,EXPLOTACIONES PORCINAS DÍAZ S.A. ,37.5,"EXPLOTACIONES PORCINAS DIAZ, S.A",Valdelosa,Salamanca,-5.743528,41.179169,Explotación de ganado porcino,
1392,263,GRANJA LO FORCALLET ,37.477,"HOLPORCI, S.L.",Roquetas ,Tarragona,0.430727,40.785943,Explotación de ganado porcino,
6385,264,GRANJA PEROT ,37.471,"HERVI652 CAT, SAT",Almenar,Lleida,0.54885,41.783952,Explotación de ganado porcino,
1352,265,GRANJA PLAÇA ,37.46,"EXPLOLIFEL,SL",Sant Ramon,Lleida,1.384296,41.744933,Explotación de ganado porcino,
7294,266,RECRÍA DE GANADO TESTADO S.L. PARAJE LA MATA ,37.45,"RECRÍA DE GANADO TESTADO, S.L. (REGATES)",Consuegra,Toledo,-3.7851,39.5224,Explotación de ganado porcino,
8514,267,"EXPORGONDO, S.L. ",37.2,EXPORGONDO,Avengondo,Coruña (A),-8.28751,43.22892,Explotación de ganado porcino,
4476,268,"DESARROLLO GANADERO PORCINO, S.A (ANTES GRANJA ODARPI) ",37.2,DEGAPOR,Melgar de Fernamental,Burgos,-4.239286,42.444542,Explotación de ganado porcino,
2189,269,LES CLAPISSES ,37.126,"LES CLAPISSES, SC",Masarac,Girona,2.968428,42.360545,Explotación de ganado porcino,
9130,270,AVICOLA SOLER ,37.111,"AVICOLA SOLER, S.L.",Mpontmaneu,Barcelona,1.392132,41.633182,Avicultura,
8713,271,EXPLOTACION AVICOLA DE CEBO ,37.086,"VILLAR CANO, S.L.",Landete,Cuenca,-1.367422,39.90772,Avicultura,
2340,272,MASIA LA GUINEU ,37.066,"GRUPO PREMIER PIGS, SL",Puigverd d'Agramunt,Lleida,1.073992,41.72324,Explotación de ganado porcino,
3141,273,GRANJA BANUS I ,37.062,S.A.T. BANUS 1330 CAT,Sentmenat,Barcelona,2.157496,41.618869,Explotación de ganado porcino,
2487,274,GRANJA AGROPECUARIA LA SARDERA SL ,37.062,GRANJA AGROPECUARIA LA SARDERA SL,Llardecans,Lleida,0.53309,41.409188,Explotación de ganado porcino,
2425,275,FINCA CAPELLA ,37.062,"PONDECA, SL",Manarguens,Lleida,0.708131,41.739127,Explotación de ganado porcino,
3322,276,MAS LLARGUES ,37.061,"CAMARASA POTRONY, SL",Artesa de Segre,Lleida,1.16708,41.975921,Explotación de ganado porcino,
9503,277,SERRA TORREGASSA ,37.017,RAMGERPIG SL,Olius,Lleida,1.475236,41.994262,Explotación de ganado porcino,
1755,278,"AGROPECUARIA LA FONTANA, S.L. ",37.008,"AGROPECUARIA LA FONTANA, S.L.",Totana,Murcia,-1.491137,37.76549,Explotación de ganado porcino,
9464,279,GRANGES PRIO ,37,"GRANJAS PRIO, S.L.",Perafort,Tarragona,1.249738,41.202523,Avicultura,
8205,280,AGROADAJA S.L ,37,"AGROADAJA, S.L.",Santo Domingo de las Posadas,Avila,-4.650725,40.788856,Explotación de ganado porcino,
6573,281,"SILMOS SALAMANCA, SL ",37,SILMOS SALAMANCA,Aldearodrigo ,Salamanca,-5.810278,41.119167,Explotación de ganado porcino,
8544,282,"ALCÁZAR MANCEBO, S.L. ",36.968,"ALCÁZAR MANCEBO, S.L.",Villarobledo,Albacete,-2.53956,39.2322,Avicultura,
2290,283,GRANJA ARENY ,36.806,RAMON ARENY CERCÓS,Castellserá ,Lleida,0.956453,41.742594,Explotación de ganado porcino,
7866,284,SAT SERNEVADA ,36.8,S.A.T. SERNEVADA,Madrigalejo del Monte,Burgos,-3.735278,42.139722,Avicultura,
2415,285,GRANJA AGROTESA ,36.606,"PIENSOS BORRAS, S.L.",Gandesa,Tarragona,0.450272,41.060923,Explotación de ganado porcino,
9931,286,GRANJA ERA LLACUNA ,36.4,"AGROBAIONA, SL",Puljat,Barcelona,1.421738,41.709329,Avicultura,
5686,287,GERMANS CASTELL XX SL ,36.4,GERMANS CASTELL XX SL,Uldecona,Tarragona,0.396958,40.612674,Avicultura,
6805,288,"ZUFIAURRE SUSO, JULIAN ",36.393,"ZUFIAURRE SUSO, JULIAN",Tafalla,Navarra,-1.674264,42.530319,Avicultura,
5849,289,GRANJA SOLER (7910EZ) ,36.327,CARLES SOLER ANAYA,Soses,Lleida,0.472365,41.562009,Explotación de ganado porcino,
4864,290,PIENSOS ARB (GRANJA D´AGRAMUNT) ,36.27,PIENSOS A.R.B. S/A.,Agramunt,Lleida,1.106653,41.78077,Explotación de ganado porcino,
2068,291,PRODUCTOS GANADEROS DE TENERIFE ,36.258,"PRODUCTOS GANADEROS DE TENERIFE, S.A.",Granadilla de Abona,Santa Cruz deTenerife,-16.54503,28.12177,Avicultura,
7257,292,GANADOS PANDI S.L. ,36.17,"GANADOS PANDI, S.L.",Polán,Toledo,-4.1629,39.7819,Explotación de ganado porcino,
7919,293,RAFAEL FERNANDEZ ALONSO ,36.1,RAFAEL FERNÁNDEZ ALONSO,Toral de Guzmanes,León,-5.585878,42.250517,Explotación de ganado porcino,
9747,294,CAMP DEL MIRACLET ,35.988,"AGROPECUARIA BRUGUERA BONFILL, SL",Lers,Girona,2.892373,42.291699,Explotación de ganado porcino,
1782,295,"GRANJA LOS ALECOS,S.L.-BARASOAIN ",35.926,GRANJA LOS ALECOS S.L.,Barásoain,Navarra,-1.64345,42.6075,Explotación de ganado porcino,
7259,296,EXPLOTACIÓN PORCINA MONTE EL BOSCO (EXPORINSA) ,35.876,"EXPLOTACIÓN PORCINA INTEGRAL, S.A.",Osa de la Vega,Cuenca,-2.7954,39.6258,Explotación de ganado porcino,
3008,297,GRANJA LA SALSA ,35.835,"PIENSOS Y GANADOS DEL VALLÉS, S.A.",Basella ,Lleida,1.339805,42.033306,Explotación de ganado porcino,
7852,298,GRANXA DE CEBA DE POLOS ,35.8,FORNO VELLO Y OTRO S.C,Sareaus,Ourense,-7.639714,42.120914,Avicultura,
7277,299,JEFALUMEJO S.L. ,35.7,JEFAMULEJO S.L.,Landete,Cuenca,-1.2996,39.7423,Avicultura,
2219,300,GRANJA SIMONET ,35.692,AGROPECUARIA VILA SL,Foradada,Lleida,1.037998,41.892486,Explotación de ganado porcino,
8773,301,GRANJA PALAU IBARS ,35.532,MIQUEL PALAU IBARS,Aitona,Lleida,0.441445,41.510216,Explotación de ganado porcino,
9093,302,GRANJA BASTURS ,35.528,CAL GENERAL SL,Isona,Lleida,1.006019,42.143543,Explotación de ganado porcino,
7363,303,JAVIER MORA JIMÉNEZ (CENTRO ORGAZ) ,35.514,JAVIER MORA JIMÉNEZ,Orgaz,Toledo,-3.9196,39.4578,Explotación de ganado porcino,
5958,304,GANAHER (EL TELEGRAFO) ,35.5,GANAHER,Adanero,Avila,-4.594561,40.965192,Explotación de ganado porcino,
6201,305,EXPLOTACION PORCINA TIPO MIXTO EN TIPO CAMPING- GANADERA LA TOVA ,35.28,"GANADERA LA TOVA, S.L.",Lorca,Murcia,-1.69421,37.67618,Explotación de ganado porcino,
7249,306,"DOAL EXPLOTACIONES GANADERAS, S.L. ",35.21,"DOAL EXPLOTACIONES GANADERAS, S.L.",Yunclillos,Toledo,-3.9685,40.0433,Explotación de ganado porcino,
8550,307,"FUENTELESPINO, SOCIEDAD COOPERATIVA DE CASTILLA-LA MANCHA ",35.186,FUENTELESPINO SOCIEDAD COOPERATIVA,Fuentespino de Moya,Cuenca,-1.469453,39.918679,Explotación de ganado porcino,
9081,308,GRANGES ARMENGOL ,35.145,ANTONI ARMENGOL CAPDEVILA,Albesa,Lleida,0.674229,41.768602,Explotación de ganado porcino,
8842,309,CAL TANYOT ,35.145,"HOSTAL DEL VENT, SL",Pinós,Lleida,1.50001,41.814014,Explotación de ganado porcino,
2305,310,GRANJA LA VALL DE L´ALIGA ,35.145,"CASALS CAPDEVILA, ADOLFO",Torrefarrera,Lleida,0.522469,41.703459,Explotación de ganado porcino,
6646,311,SAT AVICOLA SAN MIGUEL N705 NA ,35.134,SAT AVICOLA SAN MIGUEL N705 NA,Uharte-Arakil,Navarra,-1.947584,42.909166,Avicultura,
6476,312,EXPLO-PORC ,35.043,"EXPLOTACIONS BOLADERAS, SL",Veciana,Barcelona,1.523156,41.683558,Explotación de ganado porcino,
2336,313,GRANJA PAULÍN DE SAN ANTÓN ,35,"AGROPECUARIA DEL SOL, S.L.",Utrera,Sevilla,-5.889292,37.168215,Explotación de ganado porcino,
5360,314,EXPLOTACION PORCINA QUINQUILLA ,34.967,"JUAN JIMENEZ GARCIA, S.A.",Lorca,Murcia,-1.681201,37.718787,Explotación de ganado porcino,
9211,315,JOSEP MARIA PIJUAN VALL ,34.96,JOSEP MARIA PIJUAN VALL,Ossó de Sió,Lleida,1.165162,41.744614,Avicultura,
9557,316,HÉCTOR VELASCO DEL RÍO ,34.9,HÉCTOR VELASCO DEL RÍO,Bretó,Zamora,-5.730014,41.864372,Explotación de ganado porcino,
8685,317,"CIRO CASAS E HIJOS, S.L ",34.9,"CIRO CASAS E HIHOS, S.L",Cazurra,Zamora,-5.680111,41.411978,Explotación de ganado porcino,
7882,318,DAVID SAIZ REALES ,34.9,DAVID SÁIZ REALES,Palacios de Goda ,Avila,-4.761694,41.108658,Explotación de ganado porcino,
7037,319,ESTHER PINDADO MARTIN (ANTES JAVIER PARDILLO MAYOR) ,34.9,ESTHER PINDADO MARTIN,Blasconuño de Matacabras,Avila,-4.975844,41.126986,Explotación de ganado porcino,
4456,320,HERLALLA GANADERA S.L.U ,34.9,HERLALLA GANADERA S.L.U,Villalba de Duero,Burgos,-3.772222,41.682778,Explotación de ganado porcino,
4212,321,EL RECORVO S.L. ,34.9,EL RECORVO S.L.,Valtiendas,Segovia,-3.889583,41.491675,Explotación de ganado porcino,
4171,322,AGROPECUARIA BOTALHORNO - FINCA BOTALHORNO ,34.9,HNOS. HERNÁNDEZ PÉREZ S.L.,Donhierro,Segovia,-4.676642,41.119931,Explotación de ganado porcino,
9754,323,CANT D´ORGUES ,34.89,"MATEU ESCODA, CB",Vilanova d'Escornalbou,Tarragona,0.922544,41.108347,Explotación de ganado porcino,
7329,324,S.A.T. 9892 VALLEHERMOSO ,34.817,S.A.T. 9892 VALLEHERMOSO S.R.L.,La Solana,Ciudad Real,-3.1649,38.6896,Explotación de ganado porcino,
5113,325,"AGROPECUARIA CAMPANILLAS, S.A. ",34.8,"AGROPECUARIA CAMPANILLAS, S.A.",Malaga,Malaga,-4.535306,36.748941,Explotación de ganado porcino,
9342,326,FELIPE MARTÍN GÓMEZ ,34.7,FELIPE MARTÍN GÓMEZ,Nava de Arevalo,Avila,-4.763494,40.984042,Avicultura,
8911,327,"AGROSANS RAMADERA, SL ",34.698,ANTONIO SANS CULLERÉ,Arbeca,Lleida,0.971441,41.525799,Explotación de ganado porcino,
8770,328,CAN RAMIRO ,34.672,"ALEIX BURGUES I DOLORS NOVAU, CB",Áger,Lleida,0.746494,42.005005,Explotación de ganado porcino,
7617,329,ALICIA CORTÉS NIETO ,34.66,ALICIA CORTÉS NIETO,Aliaguilla,Cuenca,-1.32463,39.741626,Avicultura,
7135,330,GRANJA EL TORRENTÍ ,34.66,GRANJA EL TORRENTÍ,Montaverner,Valencia,-0.499249,38.864937,Avicultura,
8800,331,SERRAT DEL BANÚS ,34.552,"PINSOS COMPOSTOS VICTORIA, S.A.",Folguroles,Barcelona,2.313901,41.949202,Explotación de ganado porcino,
3308,332,GRANJA DEL TORRICO ,34.506,CARLES GRA CASANOVES,Castelló de Farfanya,Lleida,0.707641,41.78498,Explotación de ganado porcino,
6664,333,SAT Nº 575 NA DIAZ DE ZERIO-SESMA ,34.463,SAT Nº 575 NA DIAZ DE ZERIO,Sesma,Navarra,-2.11,42.451389,Explotación de ganado porcino,
6496,334,GRANJA PETONS ,34.414,"CAL PETONS, S.L.",Ponts,Lleida,1.212453,41.912244,Explotación de ganado porcino,
4339,335,S.A.T. Nº 1.751 GRANJA HIMA ,34.4,S.A.T. Nº 1.751 GRANJA HIMA,Melgar del Fernamental,Burgos,-4.255833,42.402222,Avicultura,
1365,336,AGROPLANUR S.L. ,34.378,"AGROPLANUR, S.L.",Castellserà,Lleida,0.973961,41.755202,Explotación de ganado porcino,
2143,337,GERARDO DE LUCAS S.L.:2143 ,34.3,GERARDO DE LUCAS,Trigueros del Valle,Valladolid,-4.634722,41.774444,Avicultura,
10018,338,"EXPLOTACIÓN AVÍCOLA DE POLLOS DE ENGORDE PARAJE ""EL POLO"" ",34.2,"AGRÍCOLA DEHESA LAS YEGUAS, S.L.U.",Puebla de Guzman,Huelva,-7.1056,37.3911,Avicultura,
4916,339,GRANJA FUSTEGUERES ,34.155,RAMON FUSTEGUERES TORRA,Sanaüja,Lleida,1.307746,41.864064,Explotación de ganado porcino,
8262,340,AVÍCOLA EL CHARCÓN ,34.1,"AVÍCOLA ""EL CHARCÓN"", S.L.",Burgo de Osma,Soria,-3.083639,41.543797,Avicultura,
9965,341,GRANJA TATXÉ ,34.089,GRANJA TATXE SCP,Pujalt,Barcelona,1.426479,41.713041,Explotación de ganado porcino,
7925,342,JESÚS ANTONIO BALLESTEROS DE FRUTOS ,34,JESÚS ANTONIO BALLESTEROS DE FRUTOS,Escalona del prado,Segovia,-4.142811,41.172344,Avicultura,
7691,343,"GÓMEZ GÓMEZ CESÁREO Y TRES MÁS, S.C. ",34,"GÓMEZ GÓMEZ CESÁREO Y TRES MÁS, S.C.",Santa Maria del Campo,Burgos,-3.966389,42.149722,Explotación de ganado porcino,
5597,344,"SEYSA, S.A. (AAI-TO-111) GRANJA EL PARRAL ",33.965,"SEYSA, S.A.",Fuensalida,Toledo,-4.1349,40.0239,Explotación de ganado porcino,
5569,345,AGRÍCOLA GANADERA HERMANOS LÓPEZ S.L. (AAI-TO-132) ,33.958,AGRÍCOLA GANADERA HERMANOS LÓPEZ S.L.,Azutan,Toledo,-5.1521,39.7967,Explotación de ganado porcino,
8081,346,"IBÉRICOS ARAUZO 2004, S.L (LAS CARRASCASAS) ",33.9,"IBERICOS DE ARAUZO 2004, S.L",Aldeaseca de la frontera,Salamanca,-5.247817,40.952331,Explotación de ganado porcino,
9126,347,GRANJA PELEGRI ,33.88,"PELEGRI, S.C.P.",Bellcaire d'Urgell,Lleida,0.904123,41.739174,Avicultura,
9453,348,GRANJA RAÜL FLIX ,33.867,RAUL FLIX PELEGRI,El Solerás,Lleida,0.70361,41.4149,Explotación de ganado porcino,
9225,349,GRANJA AGUILA ,33.867,MANUEL AGUILA AGUILA,"Avellanes i Santa Linya, Les",Lleida,0.798984,41.895532,Explotación de ganado porcino,
2227,350,GRANJA PARSIO ,33.867,"CADENS SANS, FERNANDO","Plans de Sió, Els",Lleida,1.227382,41.748545,Explotación de ganado porcino,
8552,351,ABONOS ORGÁNICOS L.V. SOC. COOP. CLM ,33.817,ABONOS ORGÁNICOS L.V. SOC. COOP. CLM,Quintanar del rey,Cuenca,-1.942025,39.3513,Avicultura,
2482,352,GRANJA FARRE ,33.803,GRANJA FARRE,Sant Martí de Riucorb,Lleida,1.093163,41.56865,Explotación de ganado porcino,
4271,353,SCA EL SALVADOR III ,33.8,SCA EL SALVADOR DE FUENTEPELAYO,Fuentepelayo,Segovia,-4.172289,41.250544,Explotación de ganado porcino,
1655,354,"GRANJA EXPORBA_COMERCIAL ALIMENTARIA DE IMPORTACIÓN Y EXPORTACIÓN, S.A. ",33.754,COMERCIAL ALIMENTARIA DE IMPORTACIÓN Y EXPORTACIÓN S.A.,Almendralejo,Badajoz,-6.407295,38.681394,Explotación de ganado porcino,
1800,355,"GRANJA LA SERNA, S.A. ",33.749,"GRANJA LASERNA, S.A.",Mendigorría,Navarra,-1.83048,42.63046,Explotación de ganado porcino,
820,356,MAS SALVATELLA ,33.637,"DERIVADOS AGRICOLAS E INDUSTRIALES, S.L.",Fontcoberta,Girona,2.788197,42.151933,Explotación de ganado porcino,
2677,357,GUIPORSA - MARINES ,33.512,"GUIPORSA, S.L.",Marines,Valencia,-0.559989,39.677289,Explotación de ganado porcino,
5164,358,CAÑADA LAS VACAS ,33.4,"DÍAZ BAR, S.L.",Bonares,Huelva,-6.645824,37.310633,Avicultura,
8066,359,GRANJA FUENTE DEL SOL ,33.3,"LOS RANCHOS, AGROPECUARIA S.L.",Almargen,Malaga,-5.06,36.99,Explotación de ganado porcino,
4872,360,GRANJA OSSO ,33.228,"POL.3, PARCEL.LA 104-105",Osó del Sió,Lleida,1.145236,41.742492,Explotación de ganado porcino,
418,361,L´ALOVET ,33.223,"GRANGES TERRAGRISA, S.L.U.",Sant Bartomeu del Grau,Barcelona,2.135504,41.999144,Explotación de ganado porcino,
459,362,S.A.T. SANTA ANNA 1603 NUM 213 CAT ,33.215,S.A.T. SANTA ANNA 1603 NUM 213 CAT,Sant Fruitós de Bages,Barcelona,1.863535,41.781926,Explotación de ganado porcino,
2262,363,GRANJA JOANET ,33.164,JAUME SOLE FONTOVA,Os de Balaguer,Lleida,0.822803,41.831779,Explotación de ganado porcino,
2187,364,GRANJA L´OLIVAR ,33.049,"DEUSEDAS CORCOLL I FILLS, SL",Palau-saverdera,Girona,3.153145,42.294772,Explotación de ganado porcino,
9497,365,CLOT DEL POU ,33.036,SERGI ARMENGOL SANTACREU,Agramunt,Lleida,1.034138,41.842846,Explotación de ganado porcino,
8634,366,ES502920000805-GALLINAS-VILLARREAL DE HUERVA ,33,SAT Nº 1733 GRANJA SAN MIGUEL,Villareal de Huerva,Zaragoza,-1.300703,41.177065,Avicultura,
3320,367,GRANJA JOSCA ,32.86,"GANADERA VICENT MAS, S.L.",Agramunt,Lleida,1.015953,41.733199,Explotación de ganado porcino,
9131,368,MAS CARAMATXEL ,32.842,"AGROPECUARIA COLLELL, S.L.",Gurb,Barcelona,2.273926,41.983666,Explotación de ganado porcino,
9706,369,"S.C MADURGA CALAHORRA, DIEGO Y MADURGA CHIVITE, ALBERTO ",32.823,MADURGA CALAHORRA DIEGO Y MADURGA CHIVITE ALB ERTO,Cintruénigo,Navarra,-1.7823,42.08,Explotación de ganado porcino,
7219,370,AGROPECUARIA NTRA. SRA. DE LOURDES - LOS MADROÑALES ,32.801,"AGROPECUARIA NTRA. SRA. DE LOURDES, S.L.",San bartolomé de las abiertas,Toledo,-4.7086,38.8494,Explotación de ganado porcino,
8321,371,"SALVATIERRA AGRARIA, S.L. ",32.8,"SALVATIERRA AGRARIA, S.L.",Chimeneas,Granada,-3.88,37.14,Explotación de ganado porcino,
8120,372,EXPLOTACIÓN PORCINA PONTE COIRÓS ,32.8,EXPLOTACIÓN PORCINA PONTE COIRÓS,Coiros ,Coruña (A),-8.16348,43.25193,Explotación de ganado porcino,
7907,373,AGROPECUARIA HERMANOS BARRERO S.L. (SANTIBAÑEZ DE V) ,32.8,AGROPECUARIA HERMANOS BARRERO S.L.,Santibañez de Vidriales,Zamora,-7.018056,42.061747,Explotación de ganado porcino,
7690,374,GAPORCI S.L. ,32.8,"GAPORCI, S.L",Quintanilla del Agua,Burgos,-3.63185,42.069797,Explotación de ganado porcino,
4396,375,AGROPECUARIA LA ISA ,32.8,AGROPECUARIA LA ISA,Puentedura,Burgos,-3.5973,42.040458,Explotación de ganado porcino,
1893,376,EXPLOTACIÓN DE CERDAS MADRES TOUBES Y GULFAR ,32.8,"COREN, S.C.L","Peroxa, A",Ourense,-7.811154,42.489393,Explotación de ganado porcino,
1853,377,"AGROPECUARIA PERALTA, S.L. ",32.783,"AGROPECUARIA PERALTA, S.L.",Peralta,Navarra,-1.749058,42.346524,Explotación de ganado porcino,
9519,378,EXPLOTACION PORCINA DE CEBO ,32.782,"AGROONATE FIGUEREZ, S.L.",Pozorrubielos de la Mancha,Cuenca,-2.06742,39.485,Explotación de ganado porcino,
9370,379,GRANJA DE GANADO PORCINO DE CEBO ,32.782,PIENSOS LA PLATA S.L.,Puerto Lumbreras,Murcia,-1.513172,37.53,Explotación de ganado porcino,
7386,380,EXPLOTACION PORCINA DE CEBO ,32.782,"DISEÑO Y GAMA CONSTRUCTORA, S.L.",Lorca,Murcia,-1.903424,37.826785,Explotación de ganado porcino,
7321,381,GANADOS GARSAN S.L. II ,32.782,GANADOS GARSÁN S.L.,Poán,Toledo,-4.1849,39.7768,Explotación de ganado porcino,
5592,382,"PICO DE LA TIENDA, S.L. ",32.782,PICO DE LA TIENDA S.L.,Hellín,Albacete,-1.486,38.4236,Explotación de ganado porcino,
3145,383,GRANJA PASQUALET ,32.745,"NOVIPORCI, S.L.",Tortosa,Tarragona,0.496989,40.763595,Explotación de ganado porcino,
9479,384,CAL DANIEL ,32.625,DANIEL VILLARTE FARRE,"Baronia de Rialb, La",Lleida,1.188224,41.954246,Explotación de ganado porcino,
8018,385,"GOMEZ DIES PRODUCCIONES AGROPECUARIAS, S.L. ",32.509,GÓMEZ DIES PRODUCCIONES AGROPECUARIAS,Sinarcas,Valencia,-1.251774,39.722239,Explotación de ganado porcino,
7856,386,GRANXA PORCINA EN CICLO PECHADO CURUXEIRA ,32.5,CELSO G?MEZ VALENCIA Y OTROS S.C,Xinzo de Limia,Ourense,-7.78152,42.047,Explotación de ganado porcino,
1890,387,EXPLOTACIÓN DE CERDAS MADRES COVELAS ,32.5,"COREN, S.C.L","Blancos, Os",Ourense,-7.718602,42.013398,Explotación de ganado porcino,
6206,388,EXPLOTACION PORCINA DE CICLO CERRADO - JOSE MARTINEZ ,32.448,JOSE MARTINEZ LOPEZ,Totana,Murcia,-1.496313,37.748381,Explotación de ganado porcino,
3305,389,GRANJA CAN TRIAS ,32.436,"TRIAS VIDAL, PERE",Torrent,Girona,3.149101,41.954703,Explotación de ganado porcino,
9085,390,ROSSET ,32.27,"AGROROSSET, S.L.",Castelldans,Lleida,0.769735,41.504338,Explotación de ganado porcino,
9478,391,GRANJA SAURA VALLS ,32.251,"SAURA VALLS, DAVID",Artesa de Segre,Lleida,1.123214,41.928885,Explotación de ganado porcino,
9169,392,GRANJA BASSETES ,32.231,JOSEP LLUIS SALSE RUIZ,Os de Balaguer,Lleida,0.67396,41.929548,Explotación de ganado porcino,
9955,393,GRANJA COMACIRERA ,32.206,"ALIMENTACIO VACUNA, SL",Arbeca,Lleida,0.95469,41.54356,Explotación de ganado porcino,
7872,394,LUNASUA S.L.-MS1 ,32.2,LUNASUA S.L.,Fuentesauco,Zamora,-5.52,41.239444,Explotación de ganado porcino,
8487,395,EXPLOTACIÓN PORCINA LOS VIVANCOS ,32.197,PORCISAN,Fuente Álamo de Murcia,Murcia,-1.227211,37.657935,Explotación de ganado porcino,
8921,396,MAS D´EN PERE ,32.116,SAT LA BRUGUERA 5197,Castellfollit de Riubregós,Barcelona,1.441345,41.793167,Explotación de ganado porcino,
4263,397,"EL CAMPILLO 3251, S.L. ",32.1,"EL CAMPILLO 3251, S.L.",Fuentemilanos,Segovia,-4.247778,40.861528,Explotación de ganado porcino,
1891,398,EXPLOTACION DE POLLOS ENGORDE A LADEIRA FILGUEIRA ,32.1,COOPERATIVA AGR¿COLA GANADERA DE OURENSE S.C.G,"Porqueira
",Ourense,-7.811811,42.041348,Avicultura,
854,399,CAN XELA ,32.078,"RAFIM, S.L.",Villanant,Girona,2.884604,42.248481,Avicultura,
5953,400,"NILASA, S.A (EL SOTO I) ",32,NILASA,Espinosa de los caballeros,Avila,-4.697881,41.015625,Explotación de ganado porcino,
8281,401,JUAN CARLOS MUÑOZ RODRIGUEZ ,31.972,JUAN CARLOS MUÑOZ RODRIGUEZ,Aceuchal,Badajoz,-6.285379,38.379007,Avicultura,
9084,402,OLIVAR DE MONTPEDRÓS ,31.95,"RAMADERIA MONTPEDRÓS, S.L.",Peralada,Girona,2.988556,42.325179,Explotación de ganado porcino,
8776,403,GRANJA COMPANYS MIR ,31.95,RAMADERIA ARIMARC SL,Alcarrás,Lleida,0.502666,41.582242,Explotación de ganado porcino,
8620,404,FARCAM AGRICOLA ,31.95,FARCAM AGRICOLA SL,Alcarrás,Lleida,0.54102,41.615212,Explotación de ganado porcino,
2202,405,LA PLETA ,31.95,"VIDAL MIR, NURIA",Sant Martí de Riucorb,Lleida,1.038291,41.584704,Explotación de ganado porcino,
2145,406,GRANJA ESTIVALIZ ,31.95,SERGIO GALIA PEREZ (ABANS: JUAN LUIS GALIA GARCIA),Sénia,Tarragona,0.331157,40.637274,Explotación de ganado porcino,
1388,407,GESCASER TORRES ,31.95,"GESCASER, S.A.",Torres de Segre,Lleida,0.55301,41.531648,Explotación de ganado porcino,
2860,408,ES500950000252-CERDOS-EJEA DE LOS CABALLEROS ,31.925,GRANJAS EN RENTA,Ejea de Caballeros,Zaragoza,-1.166397,42.056419,Explotación de ganado porcino,
6302,409,EXPLOTACION AVICOLA DE CEBO-ALCAZAREN ,31.9,"CASTILAVES, S.L",Alcazarén,Valladolid,-4.678981,41.360372,Avicultura,
4406,410,"AGRO-PORCINO MANSO, S.L. ",31.9,"AGRO-PORCINO MANSO, S.L.",Santa María la Real de Nieva,Segovia,-4.401642,41.052428,Explotación de ganado porcino,
8623,411,GRANJA BRUFAU ,31.886,MIQUEL BRUFAU GELONCH,Juneda,Lleida,0.82391,41.527234,Explotación de ganado porcino,
2124,412,GRANJA LA CAMPANERA (PENELLES) ,31.854,MARIA ROSA DOMINGO FONTANET,Penelles,Lleida,0.944857,41.741964,Explotación de ganado porcino,
1793,413,GRANJA DOS HERMANAS-IRAÑETA ,31.85,"GRANJA DOS HERMANAS, S.A.",Irañeta,Navarra,-1.94417,42.92497,Explotación de ganado porcino,
8322,414,CORTIJO LAS CHOZAS ,31.8,"SALVATIERRA AGRARIA, S.L.",Chimeneas,Granada,-3.89,37.13,Explotación de ganado porcino,
384,415,LES FEIXES ,31.766,"LES FEIXES, SA",Oris,Barcelona,2.194608,42.051585,Explotación de ganado porcino,
5091,416,LUIS ANGUIS SARO ,31.6,LUIS ANGUIS SARO,Bedmar,Jaén,-3.425785,37.910975,Avicultura,
1391,417,GRANJA PERELLO GREGORI ,31.567,"PERELLÓ GREGORI, SL",Arbeca,Lleida,0.920245,41.549575,Explotación de ganado porcino,
8306,418,"AGROPECUARIA LOS GIRASOLES, S. L. ",31.508,"AGROPECUARIA LOS GIRASOLES, S. L.","Pueblanueva, LA",Toledo,-4.6756,39.8365,Explotación de ganado porcino,
5645,419,ANA ISABEL GÓMEZ CORONA ,31.507,ANA ISABEL GÓMEZ CORONA,Malpica de Tajo,Toledo,-4.5738,39.6677,Explotación de ganado porcino,
8440,420,ALFREDO ALCALÁ PÉREZ ,31.45,ALFREDO ALCALÁ PÉREZ,Fuenterobles,Valencia,-1.355392,39.575378,Avicultura,
9193,421,GRANJA ELS PEDRELLS ,31.439,"EXPLOTACIONS HORTENSI, S.L.",Masarac,Girona,2.974116,42.349222,Explotación de ganado porcino,
7826,422,ES221500000853-GALLINAS-LOPORZANO ,31.4,INTEROVO AVICOLA HUESCA,Loporzano,Huesca,-0.330982,42.151244,Avicultura,
6615,423,EXPLOTACION DE PAVOS VILELA ,31.4,"UNIÓN DE INVERSIONES MIÑOS, SLU (UNIMIÑO)",Cualedro,Ourense,-7.623921,41.980257,Avicultura,
6313,424,MIGUEL IBÁÑEZ LADISLAO Y OTROS ,31.4,"MIGUEL IBÁÑEZ LADSLAO Y OTROS, S.C.",Quintanar de la Sierra ,Burgos,-3.048333,41.966667,Explotación de ganado porcino,
4399,425,"CEBADEROS J3, S.L. ",31.4,"CEBADEROS J3, S.L.",Villalmanzo,Burgos,-3.751506,42.078758,Explotación de ganado porcino,
4235,426,SAT CABALLAR ,31.4,"ALCEDASE, S.L.",Caballar,Segovia,-3.9727,41.127675,Explotación de ganado porcino,
3393,427,FINCA LOS LEALES ,31.317,ROSA DÍAZ SANTOS,Higuera la Real,Badajoz,-6.76805,38.17151,Explotación de ganado porcino,
1381,428,COGUL SAT 1366 CAT ,31.311,COGUL SAT,Alos de Balaguer,Lleida,0.722005,41.859249,Explotación de ganado porcino,
7879,429,FINCA LA NARRA ,31.3,"SIERRA DEL PIMPOLLAR, S.L",San Pedro del Valle,Salamanca,-5.865647,41.067356,Explotación de ganado porcino,
4385,430,"GENÉTICA EL BARDAL, S.A. ",31.3,"GENÉTICA EL BARDAL, S.A.",Mecerreyes,Burgos,-3.595475,42.074303,Explotación de ganado porcino,
2146,431,"MINGOMORO S.L. ""OLMILLO"" ",31.3,MINGOMORO SL,Aldeonte,Segovia,-3.727778,41.332222,Explotación de ganado porcino,
1734,432,GRANJA Nº 1 ,31.249,"CEFU, S.A.",Alhama de Murcia,Murcia,-1.410001,37.850004,Explotación de ganado porcino,
2046,433,GRANJA MAS BLANC ,31.217,PORCICOLA MAS BLANC S.L.,Sant Pere de Vilamajor,Barcelona,2.406227,41.680431,Explotación de ganado porcino,
9053,434,ES451750000025 EXPLOTACION PORCINA ,31.216,"INTEGRAPORC, S.L.",Turleque,Toledo,-3.6865,39.5791,Explotación de ganado porcino,
1211,435,ANTONIO CÁNOVAS CÁNOVAS ,31.208,ANTONIO CÁNOVAS CÁNOVAS,Lorca,Murcia,-1.68,37.83,Explotación de ganado porcino,
6023,436,NUTRIMENTOS DEZA S.A (BAIÑA) ,31.2,NUTRIMENTOS DEZA S.A,Agolada,Pontevedra,-8.056389,42.825833,Explotación de ganado porcino,
3776,437,GRANJA LOS ALECOS ANTES SAT 1510 SAN ANTON (MILAGROS) ,31.2,GRANJA LOS ALECOS S.L.,Milagros,Burgos,-3.7,41.598889,Explotación de ganado porcino,
2690,438,PROKOM OVOPRODUCTOS SL ,31.2,PROKOM OVOPRODUCTOS SL,Iscar,Valladolid,-4.91278,41.15377,Avicultura,
7227,439,HERNANDEZ VIADEL S.L. ,31.194,HERNANDEZ VIADEL S.L.,Landete,Cuenca,-1.3864,39.7209,Avicultura,
1348,440,GRANJA FELIP ,31.124,"FELBET RAMADERA, SL",Bell-lloc d'Urgell,Lleida,0.774566,41.613605,Explotación de ganado porcino,
7359,441,"AGROPECUARIA LOS GIRASOLES, S.L. ",31.102,"AGROPECUARIA LOS GIRASOLES, S. L.","Pueblanueva, LA",Toledo,-4.642,39.9209,Explotación de ganado porcino,
2356,442,FINCA BUENA CRISTIANA ,31,"GRANJA LOS ALCORES, S.L.",Carmona,Sevilla,-5.690411,37.477761,Explotación de ganado porcino,
1294,443,GRANJA PLA DE GODALL ,30.945,SAT NUM 4205 GRANJA GODALL,Olius,Lleida,1.524649,41.961864,Explotación de ganado porcino,
8525,444,"GANADOS ELÍAS, S.L. ",30.9,"GANADOS ELÍAS, S.L.",Carmona,Sevilla,-5.713,37.421,Explotación de ganado porcino,
1248,445,GRANJA EL PIQUILLO ,30.9,"PIENSOS JIMÉNEZ, S.L.",Javalquinto,Jaén,-3.806714,37.964508,Explotación de ganado porcino,
2594,446,VEENHANDEL EN INVESTERINGEN PENINSULA IBERICA REQUENA SLU ,30.811,VEENHANDEL EN INVESTERINGEN PENINSULA IBERICA REQUENA SLU,Requena,Valencia,-1.279232,39.339367,Explotación de ganado porcino,
3324,447,GRANJA MATGES DOLCET (0230EC) ,30.806,"MATGES DOLCET, SL",Alcarrás,Lleida,0.47428,41.623607,Explotación de ganado porcino,
9490,448,GRANJA SANT JAUME ,30.8,"AGROPECUARIA ALSINA, S.C.P.",Piera,Barcelona,1.74358,41.48459,Avicultura,
9462,449,GRANJA CIVIT ,30.8,CARLES CIVIT CAMPABADAL,Oliola,Lleida,1.22279,41.905163,Avicultura,
6473,450,GRANJA SENTIS DRUDIS (POLLASTRES) ,30.8,CARMEN SENTIS DRUDIS,Llardecans,Lleida,0.566665,41.375004,Avicultura,
4312,451,"LA MORA, C.B. ",30.8,LA MORA,Aldealafuenye,Soria,-2.339486,41.668414,Explotación de ganado porcino,
2457,452,GRANJA GERMANS MASIP ,30.8,"GRANJA GERMANS MASIP, SCP",Cabacés,Tarragona,0.729454,41.248567,Avicultura,
7889,453,MIKEL ARIAS GARCIA ,30.7,MIKEL ARIAS GARCIA,Carrizo,León,-5.868756,42.5661,Explotación de ganado porcino,
1376,454,GRANJA LA FARRERA C.B. ,30.672,TRINITAT MINGUELL PONS-JOAN TRULL BALLES,Granyanela,Lleida,1.2362,41.674599,Explotación de ganado porcino,
8299,455,PORCINOS CUERVA S.L. ,30.632,PORCINOS CUERVA S.L.,Cuerva,Toledo,-4.2401,39.4774,Explotación de ganado porcino,
6134,456,ANGEL LUIS MARTIN MIÑAMBRES (FINCA VALVERDE) ,30.6,ANGEL LUIS MARTIN MIÑANBRES,Barbadillo,Salamanca,-5.819322,40.884022,Explotación de ganado porcino,
9480,457,MOLÍ D´ENFESTA ,30.58,"CANALS DE CASTELLFOLLIT, S.L.","Molsosa, La",Lleida,1.470835,41.778784,Explotación de ganado porcino,
9079,458,GRANJA MOLINE FRUITS ,30.524,"CHARLES MOLINE FRUITS, S.L.",Alcarrás,Lleida,0.526824,41.606396,Explotación de ganado porcino,
1406,459,GRANJA ARTIGUES (ISONA I CONCA DELLA) ,30.52,"J. ARTIGUES BASTUS - J. ARTIGUES VIGO, S.C.P.",Isona,Lleida,0.999916,42.121589,Avicultura,
9237,460,"IBERICOGEN, S.L. ",30.5,"IBERICOGEN, S.L.",San Muñoz,Salamanca,-6.119031,40.810078,Explotación de ganado porcino,
6267,461,LAGUNILLA SA ,30.4,LAGUNILLA,Fuentemilanos,Segovia,-4.300556,40.867222,Explotación de ganado porcino,
4220,462,CENTEPORC C.B.:4220 BERNUY DE COCA ,30.4,CENTEPORC C.B.,Santiuste de San Juan Bautista,Segovia,-4.612222,41.155,Explotación de ganado porcino,
8052,463,"AGROPECUARIAS DEL GUADAZAÓN, S.L. ",30.367,"AGROPECUARIA DEL GUADAZAÓN, S.L.",Reillo,Cuenca,-1.8929,39.87,Explotación de ganado porcino,
9942,464,SAT NÚM.2025 SALES ,30.365,"PUIGPI 2025, SL",Artesa de Segre,Lleida,1.072808,41.883867,Explotación de ganado porcino,
497,465,GRANJA EL MUJAL - RBS ,30.305,"RBS, S.L.",Navás,Barcelona,1.841905,41.890508,Explotación de ganado porcino,
8259,466,"VISTALEGRE INDUSTRIAS PORCINAS, S.L ",30.3,VISTALEGRE INDUSTRIAS PORCINAS S.L,Villoruela,Salamanca,-5.411944,41.019167,Explotación de ganado porcino,
9272,467,ES222030000851-GALLINAS - SALILLAS) ,30.24,INTEROVO CALLEN,Salillas,Huesca,-0.161761,41.969662,Avicultura,
6369,468,GRANJA REUS ,30.225,"ROVOSPA, S.L.",Agramunt,Lleida,1.174015,41.197627,Explotación de ganado porcino,
9442,469,EXPLOTACIÓN GANADERA AVÍCOLA Y AGRÍCOLA ,30.2,"PAQUITO ELOY, S.L",Lepe,Huelva,-7.231,37.366,Avicultura,
5066,470,GRANJA ENCINAREJO ,30.2,"NATURAL AVES, S.L.",Ubeda,Jaén,-3.416533,38.01316,Avicultura,
2756,471,AGROPECUARIA COLOBAR S.L. ,30.2,AGROPECUARIA COLOBAR,Fuente Encalada,Zamora,-5.991878,42.127222,Explotación de ganado porcino,
6684,472,HERMANOS DE PABLO ARRIBAS - LANGA DE DUERO ,30.1,"HERMANOS DE PABLO ARRIBAS, S.L.",Langa de Duero,Soria,-3.432884,41.618587,Explotación de ganado porcino,
8305,473,MIGUEL ÁNGEL LOPEZ SERRANO ,30.05,MIGUEL ÁNGEL LÓPEZ SERRANO,Quero,Toledo,-3.2327,39.5222,Explotación de ganado porcino,
3623,474,MASIA PUJOL ,30.033,"LAS CASSASAS, SA",Foradada,Lleida,1.034931,41.891672,Explotación de ganado porcino,
9174,475,CAL VISÓ ,30.014,"CAL VISÓ, S.L.",Puig-Reig,Barcelona,1.846966,42.001751,Explotación de ganado porcino,
9287,476,JUMAPORC -CENTRO 2 ,30,PRODUCCIONES JUMAPORC SL,Albelda,Huesca,0.525511,41.856837,Explotación de ganado porcino,
499,477,"AVÍCOLA SÚRIA, S.L. ",29.996,"AVÍCOLA SURIA, SL",Súria,Barcelona,1.770806,41.839423,Avicultura,
1756,478,"AGROPECUARIA EL ESCOBAR, S.A. ",29.994,"AGROPECUARIA EL ESCOBAR, S.A.",Fuente Alamo de Murcia,Murcia,-1.232615,37.779331,Explotación de ganado porcino,
9162,479,JAUME ROURE RAVENTÓS ,29.982,SANTIAGO ROURE LOZANO,Lleida,Lleida,0.540538,41.652504,Explotación de ganado porcino,
8084,480,"IBÉRICOS DE ARAUZO, S.L (EL SEVINO) ",29.9,"IBERICOS DE ARAUZO 2004, S.L",Zorita de la Frontera,Salamanca,-5.170911,41.006075,Explotación de ganado porcino,
8080,481,IBÉRICOS DE ARAUZO S.L (LOS MOROS) ,29.9,"IBERICOS DE ARAUZO 2004, S.L",Zorita de la Frontera,Salamanca,-5.219867,41.004975,Explotación de ganado porcino,
7701,482,GRANJA HIJOS DE ATILANO SAMPEDRO ,29.9,"HIJOS DE ATILANO SAMPEDRO, S.L",San Miguel del Pino,Valladolid,-4.905331,41.510833,Avicultura,
5586,483,"RECRÍA DE GANADO TESTADO, S.L. (REGATES) AAI-TO-152 ",29.862,"RECRÍA DE GANADO TESTADO, S.L. (REGATES)",Camarenilla,Toledo,-4.0911,40.0207,Explotación de ganado porcino,
4219,484,EL PILAR III S.L. (MOZONCILLO) ,29.8,"GRANJA NUESTRA SEÑORA DEL PILAR, S.L.",Mozoncillo,Segovia,-4.219089,41.125919,Explotación de ganado porcino,
7239,485,PATRIPOR S.L. ,29.748,PATRIPOR S.L.,Talavera de la Reina,Toledo,-4.8814,39.7891,Explotación de ganado porcino,
9470,486,GANADERA VERO ,29.714,ALFREDO VERO ESPUNY,Masdenverge,Tarragona,0.524051,40.687447,Explotación de ganado porcino,
9937,487,FERRER ,29.708,"AVÍCOLA FERRER PUJOL, SL",Vilalba dels Arcs,Tarragona,0.417219,41.120107,Avicultura,
5024,488,"PAQUITO ELOY, S.L ",29.7,"CITROPLANT, S.L.",San Silvestre de Guzman,Huelva,-7.330374,37.373637,Avicultura,
3573,489,FINCA CAÑADA DE RONQUERA ,29.7,"JUAN ZAMBRANO, S.L.",Carmona,Sevilla,-5.713071,37.420581,Avicultura,
7212,490,EXPLOTACIONES ROBLEDO S.L. - GRANJA EL CALERO ,29.657,EXPLOTACIONES ROBLEDO S.L.,Pepino,Toledo,-4.7645,40.0285,Explotación de ganado porcino,
6433,491,GRANJA CUENCA ,29.648,RAMADERIES CUENCA SCP,Bell-lloc d'Urgell,Lleida,0.766817,41.612104,Explotación de ganado porcino,
1317,492,TRESANCHEZ ,29.6,"TRESANCHEZ, SC",Soses,Lleida,0.484275,41.552499,Avicultura,
2067,493,GRANJA PASCUAL ,29.534,JORDI SANGRA RICART,Cubells,Lleida,0.970941,41.825797,Explotación de ganado porcino,
7261,494,"EXPLOTACIÓN PORCINA INTEGRAL, S.A. ",29.531,"EXPLOTACIÓN PORCINA INTEGRAL, S.A.",Tresjuncos,Cuenca,-2.7067,39.6765,Explotación de ganado porcino,
6327,495,CEBADERO LA CAPELLANÍA ,29.5,"AGASUR, S.L.",Ecija,Sevilla,-5.014087,37.660869,Explotación de ganado porcino,
4386,496,TOPIGS NORSVIN ESPAÑA-VILLADIEGO ,29.5,"TOPIGS NORSVIN ESPAÑA, S.L.",Villadiego ,Burgos,-4.071939,42.550078,Explotación de ganado porcino,
2351,497,GRANJA LA CAPELLANÍA ,29.5,"AGASUR, S.L.",Ecija,Sevilla,-5.016024,37.681762,Explotación de ganado porcino,
416,498,EL BACH ,29.49,"GRANGES TERRAGRISA, S.L.U.",Oristá,Barcelona,2.081902,41.95257,Explotación de ganado porcino,
2218,499,GRANJA VALL DE SILS ,29.394,IGRAMSA SL,Foradada,Lleida,1.007767,41.846192,Explotación de ganado porcino,
1375,500,GRANJA ELS PLANASSOS ,29.394,"GRANJA ALTISENT, S.C.P.",Belianes,Lleida,1.012715,41.568886,Explotación de ganado porcino,
2095,501,GRANJA VILASECA ,29.32,JOSEP MIQUEL GILABERT,"Molsosa, La",Lleida,1.554743,41.785931,Explotación de ganado porcino,
7891,502,SOCIEDAD COOPERATIVA LOS GRANDES ,29.3,SOCIEDAD COOPERATIVA LOS GRANDES,Villoria,Salamanca,-5.368333,41.016667,Explotación de ganado porcino,
1405,503,GRANJA SEROS 10 ,29.278,"LERIDANA DE PIENSOS, S.A",Seros ,Lleida,0.424374,41.435804,Explotación de ganado porcino,
6495,504,CAN CAMANSI ,29.245,"AGROPECUARIA CAMANSI, SL",Sant Climent Sescebes,Girona,2.964023,42.355343,Explotación de ganado porcino,
7318,505,"ISIDORO GÓMEZ E HIJOS, S.L. ",29.204,"ISIDORO GÓMEZ E HIJOS, S.L.",Portillo de Toledo,Toledo,-4.2303,40.078,Explotación de ganado porcino,
10015,506,JUAN DIEGO PARRA PARRA ,29.2,JUAN DIEGO PARRA PARRA,Zurgena,Almeria,-2.010739,37.404868,Explotación de ganado porcino,
4202,507,"COMERCIAL PECUARIA SEGOVIANA, S.L. HORNILLOS DE ERESMA ",29.2,COMERCIAL PECUARIOA SEGOVIANA S.L,Hornillos de Eresma,Valladolid,-4.735167,41.385022,Explotación de ganado porcino,
4867,508,GRANJA SENSUI ,29.114,"GESTIO AGRICOLA I RAMADERA DEL PALLARS, S.L.",Salàs de Pallars,Lleida,0.929262,42.23412,Explotación de ganado porcino,
9025,509,VISTALEGRE INDUSTRIAS PORCINAS S.L.-SAN NICOLAS ,29.1,VISTALEGRE INDUSTRIAS PORCINAS S.L,Viloruela,Salamanca,-5.424617,41.012953,Explotación de ganado porcino,
7892,510,CALABOZO FERNANDEZ ,29.1,CALABOZO FERNANDEZ S.L.,Uña de Quintana,Zamora,-6.162181,42.084033,Explotación de ganado porcino,
8392,511,GRANJA SAPERA ,29.075,SAPERA-MIQUEL SL,Aguilar de Segarra,Barcelona,1.586803,41.735939,Explotación de ganado porcino,
2198,512,MAS VIVES ,29.068,"VIVES SUÑER, S.L.",Forallac,Girona,3.066023,41.978423,Explotación de ganado porcino,
7676,513,"LLANO GORDO, EUTIMIO ROMERO ",29,EUTIMIO ROMERO JIMÉNEZ,Ribarroya,Soria,-2.360994,41.632575,Explotación de ganado porcino,
2289,514,LES PLANES ,28.998,JOSEP MARIA CAPDEVILA PALAU,"Borges Blanques, Les",Lleida,0.891018,41.531142,Explotación de ganado porcino,
7970,515,"BELENSAEZ, C.B. ",28.979,"BELENSAEZ, C.B.",Fuentealbilla,Albacete,-1.5478,39.0919,Avicultura,
8429,516,GRANJA L´ESTANQUERA ,28.934,S.A.T. LA BRUGUERA 5197 CAT,Castellfollit de Riubregós,Barcelona,1.457822,41.790615,Explotación de ganado porcino,
8676,517,MANJOSIL CABEZUELA PARCELA 217 ,28.9,"MANJOSIL CABEZUELA, S.L",Cabezuela,Segovia,-3.894247,41.223519,Explotación de ganado porcino,
4410,518,S.A.T. LAS PARRAS Nº 1446 ,28.9,S.A.T LAS PARRAS Nº 1446,Coscurita,Soria,-2.513611,41.447222,Explotación de ganado porcino,
1473,519,GRANJA LA CERCA ,28.9,"INDUSTRIA AVÍCOLA SUREÑA, S.L.",Torreperogil,Jaén,-3.308434,38.023651,Avicultura,
7209,520,GRANJA AGUDO S.L. CENTRO CAMARENA ,28.792,"GRANJA AGUDO, S.L.",Camarena,Toledo,-4.0898,40.094,Explotación de ganado porcino,
2552,521,"CAMAR AGROALIMENTARIA, S.L. ",28.728,CAMAR AGROALIMENTARIA S.L,Cedillo del Condado,Toledo,-3.9321,40.0762,Avicultura,
9083,522,GRANJA MAS ,28.691,ALBERT MAS SOLDEVILA,Vallfogona de Balaguer,Lleida,0.824489,41.729858,Explotación de ganado porcino,
8290,523,GANADOS LAJARA S.L. ,28.637,GANADOS LAJARA S.L.,Montealegre del Castillo,Albacete,-1.32704,38.788849,Explotación de ganado porcino,
9813,524,"PARAJE LOS RETAMALES (EXP. AGR. LOS NONOS, S.L.) ",28.6,"AGRÍCOLA LOS NONOS, S.L.",La Roda de Andalucía,Sevilla,-4.765,37.21,Avicultura,
8219,525,ARRIBAS MATEO C.B (ANTES ROMÁN ARRIBAS RODRÍGUEZ) ,28.6,ARRIBAS MATEO C.B,Languilla ,Segovia,-4.413333,41.434444,Explotación de ganado porcino,
7853,526,GRANXA DE CEBA DE PORCOS ,28.6,"JOS? CID Y OTROS, C.B",Serraus,Ourense,-7.640691,42.121822,Explotación de ganado porcino,
6602,527,AGROPECUARIA SILVIO A. SL.-QUEMADA ,28.5,AGROPECUARIA SILVIO A. S.L.,Quemada,Burgos,-3.557375,41.719722,Explotación de ganado porcino,
5165,528,GRANJA CAÑADA DEL JOROBADO ,28.5,"SOTO ESPINOSA DE LOS MONTEROS Y CANO, S.C.",Bollullos Par del Condado,Huelva,-6.535826,37.355995,Explotación de ganado porcino,
1743,529,EL RINCÓN ,28.451,"DALLAND HYBRID ESPAÑA, S.A",Fortuna,Murcia,-1.087266,38.126455,Explotación de ganado porcino,
2047,530,GRANJA COLLELL ,28.436,"GRANJA COLLELL, S.C.P.","Masies de Voltregà, Les",Barcelona,2.223199,42.045568,Explotación de ganado porcino,
7920,531,EUROESPA S.L. ,28.3,"DESARROLLOS INDUSTRIALES Y DE INVESTIGACIÓN, EUROESPA, S.L.",Villaveza del Agua,Zamora,-5.675097,41.895453,Explotación de ganado porcino,
7060,532,CARNICAS SORIANO S.L. ,28.266,CARNICAS SORIANO,Grevillent,Alicante,-0.830531,38.198991,Explotación de ganado porcino,
9163,533,GRANJA LES FARRERAS ,28.26,"FARRERAS BARCELO, AGNES",Manrresa,Barcelona,1.796358,41.713567,Explotación de ganado porcino,
1335,534,GRANJA CASSANYE ,28.26,"GESCASER, S.A.",Almacelles,Lleida,0.468649,41.742811,Explotación de ganado porcino,
9499,535,CAL ROMANO SCP ,28.244,CAL ROMANO SCP,"Avellanes i Santa Linya, Les",Lleida,0.704445,41.912124,Explotación de ganado porcino,
8893,536,JOAN RAMON SANGRA FARRE ,28.244,JUAN RAMON SANGRA FARRE,Vila-Sana,Lleida,0.937786,41.664528,Explotación de ganado porcino,
8011,537,GARCÍA CROSANTO CB ,28.244,GARCIA CROSANTO,Useras,Castellón,-0.161236,40.153322,Explotación de ganado porcino,
6202,538,EXPLOTACION PORCINA DE VENTA DE LECHONES EN TIPO CAMPING - FRANCES (PEREJILES) ,28.243,"EXPLOTACIONES FRANCES, S.L.",Lorca,Murcia,-1.893923,37.780405,Explotación de ganado porcino,
5584,539,"DIONISIA RODRÍGUEZ, C.B. ",28.237,"DIONISIA RODRÍGUEZ, C.B.",Consuegra,Toledo,-3.61,39.47,Explotación de ganado porcino,
7350,540,CÁRNICAS VILLACUENCA S.A. ,28.198,CÁRNICAS VILLACUENCA S.A.,Reíllo,Cuenca,-1.856,39.7121,Explotación de ganado porcino,
6370,541,CAL MESTRE ,28.177,"A.D.E. RAMADERS, SL",Gaiá,Barcelona,1.88948,41.930831,Explotación de ganado porcino,
3192,542,GRANJA MIRALCAMP ,28.161,"PORCOSCA, S.L.",Arbeca,Lleida,0.900185,41.581205,Explotación de ganado porcino,
7967,543,GRANJA COMAS - LA PALLISSA ,28.116,COMAS ANYE SCP,"Prats de Rei, Els",Barcelona,1.548537,41.714252,Explotación de ganado porcino,
3309,544,GRANJA SOLÉ ,28.116,"SOLE BARO, S.C.P.",Bellcaire d'Urgell,Lleida,0.912544,41.745546,Explotación de ganado porcino,
9929,545,GRANJA SERMAFARM ,28.103,"SERMAFARM, CB",Agramunt,Lleida,1.049739,41.777647,Explotación de ganado porcino,
6312,546,EL CONEJAR ,28.1,INMACULADA GÓMEZ CASTAÑO,Valdelosa,Salamanca,-5.733264,41.170192,Explotación de ganado porcino,
5233,547,GREGORIO JIMÉNEZ GRANADOS ,28.1,GREGORIO JIMÉNEZ GRANADOS,Albox,Almeria,-2.1232,37.531156,Explotación de ganado porcino,
1746,548,"S.A.T. Nº 9257 ""PROGRAPOR"" ",28.1,"S.A.T. Nº 9257 ""PROGRAPOR""",Pulpi,Almeria,-1.749934,37.40061,Explotación de ganado porcino,
5667,549,GRANJA PIENSOS DEL SEGRE ,28.095,"PIENSOS DEL SEGRE, S.A.","Portella, la",Lleida,0.657429,41.716197,Explotación de ganado porcino,
9963,550,AGROLERIDA POLLOS ,28,"AGROLERIDA, S.L.",Alcarrás,Lleida,0.484087,41.621724,Avicultura,
9259,551,GRANJAS DE GALLINAS PONEDORAS DE 80000 PLAZAS ,28,SALVADOR PAVÓN SANTOS,Coín,Malaga,-4.749,36.701,Avicultura,
8913,552,GRANJA CAL RIERA ,27.988,JOAN SEGURA ANGUERA,Sant Guim de Freixenet,Lleida,1.390267,41.64591,Explotación de ganado porcino,
1394,553,GRANJA MARSOL ,27.939,"AVÍCOLA PLA DE L´OLIVA , S.L.","Baronia de Rialb, La",Lleida,1.188873,41.95857,Avicultura,
9103,554,GRANJA JAVIER ALEGRE MARTINEZ ,27.931,JAVIER ALEGRE MARTINEZ,Gimenells i el Pla de la Font,Lleida,0.36211,41.670303,Explotación de ganado porcino,
2099,555,GRANJA CALABUIG (TRUGES) ,27.931,"CALABUIG AGROPECUARIA, S.L.",Montmajor,Barcelona,1.727372,41.955627,Explotación de ganado porcino,
1408,556,GRANJA CISTELLER ,27.931,"NARTAL PONENT, SA",Solsona,Lleida,1.545461,41.983231,Explotación de ganado porcino,
2421,557,ES220250000072-CERDOS-ALTORRICÓN ,27.92,"TRACK LANE, SL.",Altorricón,Huesca,0.371077,41.764836,Explotación de ganado porcino,
6758,558,HERMANOS LABAJOS PORTELA ,27.9,"HERMANOS LABAJOS PORTELA, S.L.",Adanero,Avila,-4.59074,40.928364,Explotación de ganado porcino,
3338,559,GRANJA ROS ,27.869,"ROS MAS, TERESA",Verdú,Lleida,1.120391,41.61296,Explotación de ganado porcino,
4181,560,SONLLEVA XXI (MONTEMAYOR DE PILILLA) ANTES INVERSIONES PORCINAS S.A. ,27.8,"SONLLEVA XXI, S.L.",Montemayor de Pililla,Valladolid,-4.409758,41.497303,Explotación de ganado porcino,
9144,561,RAMADERIA TORPOL ,27.797,JAUME POLLINA POCALLET,Bellpuig,Lleida,0.99077,41.603656,Explotación de ganado porcino,
9076,562,JOSEP COLL REIG ,27.797,JOSEP COLL REIG,Ivars d'Urgell,Lleida,0.977821,41.670913,Explotación de ganado porcino,
8884,563,RAMON SOLSONA CAPELL ,27.701,LORENZO SOLSONA PEIRO,Torregrosa,Lleida,0.843859,41.582945,Explotación de ganado porcino,
7675,564,GRUCA MURO SLU ,27.7,GRUCA MURO SLU,Olvega,Soria,-1.994444,41.808889,Explotación de ganado porcino,
2432,565,GRANJAS MESTRE ,27.664,JOSE RAMON MESTRE EJARQUE,Tortosa,Tarragona,0.543812,40.790726,Avicultura,
8926,566,GRAGES TERRAGRISA - NUM. 1 - 3/ 257 ,27.605,"GRANGES TERRAGRISA, S.L.U.",Oliola,Lleida,1.126151,41.82023,Explotación de ganado porcino,
9930,567,GRANJA BONAVENTURA CAPELL ,27.477,ANTONIO PUIG CAPELL,Puigverd de Lleida,Lleida,0.727641,41.552084,Explotación de ganado porcino,
828,568,GRANJA GANASA ,27.477,"GANADERA DEL AMPURDAN, S.A.",Torroella de Fluvià,Girona,3.039054,42.187021,Explotación de ganado porcino,
8927,569,GRANGES TERRAGRISA NUCLI 3-5/027 ,27.413,"GRANGES TERRAGRISA, S.L.U.",Oliola,Lleida,1.147566,41.820758,Explotación de ganado porcino,
8925,570,GRANGES TERRAGRISSA NUCLI 2-3/254 ,27.413,"GRANGES TERRAGRISA, S.L.U.",Oliola,Lleida,1.132364,41.830148,Explotación de ganado porcino,
8881,571,GRANJA TIESO ,27.413,ANTONIO PIÑEIRO MOLINA,Torregrosa,Lleida,0.829034,41.598319,Explotación de ganado porcino,
9019,572,"AGROPECUARIA SIETEIGLESIAS, S. L.-AVES ",27.4,"AGROPECUARIA SIETEIGLESIAS, S. L.",Matapozuelos,Valladolid,-4.772258,41.431408,Avicultura,
7980,573,PORCIPORK S.L. ,27.346,PORCIPORK S.L.,Garavalla,Cuenca,-1.376468,39.814406,Explotación de ganado porcino,
8304,574,PILAR RIVAS BOTELLA ,27.319,PILAR RIVAS BOTELLA,Socovos,Albacete,-1.8679,38.3236,Explotación de ganado porcino,
5603,575,"IBERICOS JIMENA 2013,S.L. ",27.319,"MULTI VELGO, S.L.",Recas,Toledo,-3.991,40.0648,Explotación de ganado porcino,
6190,576,"EXPLOTACION PORCINA DE CEBO, LAS BARRACAS ",27.318,ISABEL RUZAFA SÁNCHEZ,Lorca,Murcia,-1.89504,37.843379,Explotación de ganado porcino,
8229,577,MARIO ANTÓN REGIDOR ,27.3,MARIO ANTÓN REGIDOR,Velamazán,Soria,-2.687569,41.461917,Explotación de ganado porcino,
7861,578,FRANCISCO JAVIER RODRÍGUEZ CARBALLO - ESPINOSA DE CERRATO ,27.3,FRANCISCO JAVIER RODRÍGUEZ CARBALLO,Espinosa de Cerrato,Palencia,-3.931972,41.974533,Explotación de ganado porcino,
6361,579,CORTIJO SANTA CATALINA ,27.3,"SALVATER 94, S.L.",Chimeneas,Granada,-3.762632,37.130938,Explotación de ganado porcino,
6345,580,LAS VILLAS ,27.2,HERMATER 99 S.L.,Chimeneas,Granada,-3.863762,37.133849,Explotación de ganado porcino,
8177,581,VEREDA SAN MARCOS ,27.178,VEREDA SAN MARCOS,Utiel,Valencia,-1.216063,39.642973,Explotación de ganado porcino,
9771,582,INSTALACION DE GRANJA PORCINA ,27.114,"CASA LA PERALEJA, S.C. DE C.L.M",Iniesta,Cuenca,-1.74556,39.4897,Explotación de ganado porcino,
5357,583,EXPLOTACION PORCINA CORDILLERA ,27.114,"JUAN JIMENEZ GARCIA, S.A.",Lorca,Murcia,-1.69421,37.67618,Explotación de ganado porcino,
4400,584,AGROPECUARIA COCA DE AREVALO ,27.1,AGROPECUARIA COCA S.L.,Arévalo,Avila,-4.746051,41.052172,Explotación de ganado porcino,
7789,585,GRANJA CASTELLO ,27.091,JO.MA RAMADERS 78 SL,"Masies de Voltregà, Les",Barcelona,2.194491,42.036949,Explotación de ganado porcino,
3156,586,MAS PINELL ,27.042,"MAS PINELL, SCCL","Borges Blanques, Les",Lleida,0.81091,41.534418,Explotación de ganado porcino,
2053,587,GRANGES PERE VILA ,27.014,CAL PERE VILA SL,Cristá,Barcelona,2.033889,41.952176,Explotación de ganado porcino,
6319,588,VALDEROBIA S.L. ,26.9,VALDEROBIA,Valdegueña,Soria,-2.165664,41.807644,Explotación de ganado porcino,
8860,589,GRANJA LLUCITANA ,26.838,"MARJOGEN, SL",Santa Maria de Merlès,Barcelona,1.997596,42.020727,Explotación de ganado porcino,
7958,590,GRANJA SOLANS ,26.838,"REGUE 58, S.C.P.",Agramunt,Lleida,1.074286,41.800063,Explotación de ganado porcino,
3625,591,GRANJA SOLA ,26.838,"AGROPECUARIA SOLBA, SAT 620 CAT",Isona,Lleida,1.028259,42.119423,Explotación de ganado porcino,
8020,592,"GRANJA DE GANADO PORCINO DE CEBO, LOS POLONIOS ",26.837,LOS POLONIOS S.L.,Lorca,Murcia,-1.6917,37.6725,Explotación de ganado porcino,
4192,593,AGROFRESNOS S.L. ,26.8,AGROFRESNOS S.L.,Sanchidrian,Avila,-4.601708,40.901292,Explotación de ganado porcino,
5668,594,GRANJA TOSSALET ,26.797,"AGRORAMADERA TOSSALET, S.L.",Ponts,Lleida,1.159511,41.913929,Explotación de ganado porcino,
8621,595,GRANJA L´HEREU ,26.757,JOSEP MARIA PUIGPINÓS MARSOL,"Baronia de Rialb, La",Lleida,1.17867,41.996954,Explotación de ganado porcino,
5631,596,JULIAN MORALEDA RODRÍGUEZ ,26.72,JULIAN MORALEDA RODRÍGUEZ,Consuegra,Toledo,-3.6686,39.2395,Avicultura,
5637,597,INDUSTRIAS AVÍCOLAS HERPOGA S.L. ,26.716,"INDUSTRIAS AVÍCOLAS HERPOGA, S.L.","Acebron, El",Cuenca,-2.9847,39.9093,Avicultura,
5044,598,"EXPLOTACIÓN GANADERA SECOR, S.L. ",26.7,"EXPLOTACIÓN GANADERA SECOR, S.L.",Somontin,Almeria,-2.3844,37.371887,Explotación de ganado porcino,
4217,599,GUSTAVO MURIEL ORTEGA-FOMPEDRAZA (ANTES GRANJA MARTÍN BAYÓN) ,26.7,GUSTAVO MURIEL ORTEGA,Fompedraza,Valladolid,-4.166836,41.509928,Explotación de ganado porcino,
1285,600,S.A.T. OLIOLA ,26.617,"SAT OLIOLA, S.L",Oliola,Lleida,1.178277,41.877709,Explotación de ganado porcino,
7680,601,AGROCINEGETICA PERDICES ALTUBE S.A. (IGLESIAS) ,26.6,"AGROCINEGÉTICA PERDICES ALTUBE, S.A.",Iglesias,Burgos,-3.970722,42.305961,Avicultura,
6338,602,DIEGO GARCÍA PARRA ,26.6,DIEGO GARCÍA PARRA,Huercal,Almeria,-1.858849,37.394447,Explotación de ganado porcino,
4258,603,"LUÍS DOMINGO HERNÁNDEZ E HIJOS, S.L (ANTES EXPLOTACION PORCINA LA CHANETA S.A.) ",26.6,"LUÍS DOMINGO HERNÁNDEZ E HIJOS, S.L",Ejeme,Salamanca,-5.535794,40.749947,Explotación de ganado porcino,
4206,604,"COMERCIAL PECUARIA SEGOVIANA, S.L. MATAPOZUELOS ",26.6,COMERCIAL PECUARIOA SEGOVIANA S.L,Matapozuelos,Valladolid,-4.778897,41.420247,Explotación de ganado porcino,
4205,605,NAVILLA DE SAN BENITO S.L. ,26.6,INVERSIONES DE ALLÍ S.L,Hornillos de Eresma,Valladolid,-4.729853,41.338036,Explotación de ganado porcino,
9199,606,GRANJA TORRES ,26.582,"TORRES LLOBET, ANTONI",Verdú,Lleida,1.096681,41.605477,Explotación de ganado porcino,
3167,607,GRANJA PUIGDORCA ,26.582,"PUIGDORCA, C.B.",Valsareny,Barcelona,1.892903,41.863609,Explotación de ganado porcino,
2595,608,VEEHANDEL EN INVESTERINGEN PENINSULA IBERICA- BETERA ,26.558,VEEHANDEL EN INVESTERINGEN PENINSULA IBERICA - BETERA S.L.,Betera,Valencia,-0.418529,39.602243,Explotación de ganado porcino,
7087,609,FENOPORK-VILAFAMÉS ,26.553,FENOPORK,Benlloch,Castellón,0.006498,40.237679,Explotación de ganado porcino,
7607,610,ES221120000189-CERDOS-FRAGA ,26.5,EXPLOTACIONES GANADERAS ESTICHE S.L.,Fraga,Huesca,0.376386,41.579433,Explotación de ganado porcino,
5532,611,CASILLA NARVAEZ ,26.5,"CIANPASA, S.L.",Carmona,Sevilla,-5.633474,37.467276,Explotación de ganado porcino,
1691,612,GRANJA EL TENDEDERO ,26.5,"AGROGANADERA MESA, S.L.",Teba,Malaga,-4.838201,36.999408,Explotación de ganado porcino,
6391,613,SAT 934 MAS ROVIRA ,26.438,S.A.T. MAS ROVIRA 934 CAT,Santa Maria d'Oló,Barcelona,2.039191,41.86013,Explotación de ganado porcino,
10013,614,GRANJA LA ESPARRAGOSA ,26.4,LUCÍA GÓMEZ MONTERO,Marinaleda,Sevilla,-4.937,37.359,Avicultura,
7163,615,ELADIO MONTES MARANCHON ,26.362,ELADIO MONTES MARANCHON,Venta del Moro,Valencia,-1.315041,39.436224,Explotación de ganado porcino,
8019,616,"GRUPO AVÍCOLA LA CRESTA,S.L ",26.346,"GRUPO AVÍCOLA LA CRESTA, S.L.",Bullas,Murcia,-1.675386,38.04901,Avicultura,
9176,617,ANTONI CAPARÓ GUINART ,26.329,ANTONIO CAPARÓ GUINART,Riudoms,Tarragona,1.057106,41.152038,Avicultura,
2154,618,GRANJA LUÍS BAEZA S.L.:VALLELADO - AVES ,26.3,GRANJA LUIS BAEZA,Vallelado,Segovia,-4.446389,41.41915,Avicultura,
8809,619,GRANJA PERETÓ ,26.288,PERETO-ERILL SL,Isona,Lleida,1.056628,42.125626,Explotación de ganado porcino,
3164,620,GRANJA SOLER ,26.288,"SOLER RAMADERS, S.L.","Masies de Voltregà, Les",Barcelona,2.21076,42.035306,Explotación de ganado porcino,
2318,621,GRANJA COLOME-MASETS ,26.288,"GERMANS LLEIXA COLOME, C.B.",Mas de Barberans,Tarragona,0.381002,40.738979,Explotación de ganado porcino,
6455,622,LA GABRIELA ,26.263,"MONTSERRAT MARSA, JOAN",Pujalt,Barcelona,1.475256,41.699793,Explotación de ganado porcino,
7752,623,LOS CHOLAS ,26.256,AGROPECUARIA LOS CHOLAS,Fuente Alamo de Murcia,Murcia,-1.20575,37.718047,Explotación de ganado porcino,
7429,624,CEBADERO PORCINO CELESTINO CÁNOVAS LÓPEZ. ,26.256,CEBADERO PORCINO CELESTINO CÁNOVAS PÉREZ.,Totana,Murcia,-1.500142,37.770646,Explotación de ganado porcino,
7211,625,PATRIMONIAL LOS GIRASOLES - GRANJA LA ENCINILLA ,26.226,"AGROPECUARIA LOS GIRASOLES, S. L.",San Bartolomé de las Abiertas,Toledo,-4.7049,39.8538,Explotación de ganado porcino,
877,626,TERRES BLANQUES - CORRALS DEL CABRE ,26.226,"CAPALLERA-ARNAU, CB",Lladó,Girona,2.80363,42.249226,Explotación de ganado porcino,
8307,627,MIRAVI S.C.P. ,26.208,MIRAVI S.C.P.,Mira,Cuenca,-1.4564,39.7222,Avicultura,
8223,628,SOCIEDAD AGROPECUARIA LAS VIÑAS ,26.2,AGROPECUARIA LAS VIÑAS S.L,Fontiveros,Avila,-4.948056,40.933333,Explotación de ganado porcino,
7036,629,"EXPLOTACIONES PORCINAS LAS BERLANAS, S.L ",26.2,"EXPLOTACIONES PORCINAS LAS BERLANAS, S.L","Berlanas, Las",Avila,-4.760094,40.815931,Explotación de ganado porcino,
4426,630,"COOPERATIVA NUTRICIÓN TEO CALPORC, SOC. COOP(ANTES SOC COOPERATIVA CALPORC) ",26.2,"COOPERATIVA NUTRICIÓN TEO CALPORC, SOC. COOP",Arrabalde,Zamora,-5.878333,42.095556,Explotación de ganado porcino,
4308,631,GRANJA GANADOS CINTORA S.L. ,26.2,GANADOS CINTORA S.L.,Agreda,Soria,-1.853083,41.900164,Explotación de ganado porcino,
9075,632,GRANJA SOLERS ,26.199,JOSEP BERNAUS BARO,oliola,Lleida,1.188262,41.876164,Explotación de ganado porcino,
9709,633,"AGROPECUARIA CARMELDO, S.L.-VALDECARROS ",26.1,"AGROPECUARIA CARMELDO, S.L.",Valdecarros,Salamanca,1.188262,41.876164,Explotación de ganado porcino,
4210,634,PORCINO EL CERRO S.L. ,26.1,PORCINO EL CERRO S.L.,Iscar,Valladolid,-4.543817,41.313908,Explotación de ganado porcino,
1178,635,ES220990000802-GALLINAS-ESPLÚS ,26.1,AVICOLITERA 3000,Esplús,Huesca,0.294816,41.786844,Avicultura,
7213,636,SEMILLEROS JUANFRA S.C.L. ,26.09,"SEMILLEROS JUANFRA, S.C.","Pueblanueva, La",Toledo,-4.686,39.964,Explotación de ganado porcino,
1736,637,GRANJA Nº 3 ,26.073,"CEFU, S.A.",Alhama de Murcia,Murcia,-1.38,37.83,Explotación de ganado porcino,
1729,638,ESPERANZA Nº 2 ,26.034,"CEFU, S.A.",Pliego,Murcia,-1.137148,37.954289,Explotación de ganado porcino,
3321,639,GRANJA CABESTANY ,26.007,"CABESTANY FARRE, JAUME",Nalec,Lleida,1.113521,41.565564,Explotación de ganado porcino,
9708,640,"JULIÁN MARTÍN, S.A.- CEBO ",26,JULIAN MARTÍN,Pedrosillo de los Aires,Salamanca,-5.662778,40.676111,Explotación de ganado porcino,
4391,641,EALUSA:4391 ,26,"AGROPECUARIA LOMA DE UCIEZA, S.A.",Saldaña,Palencia,4.710556,42.568083,Explotación de ganado porcino,
4027,642,LAS CUMBRES DE VALDEOSMA ,26,"LAS CUMBRES DE VALDEOSMA, S.L.U.",Burgo de Osma-Ciudad de Osma,Soria,-3.108333,41.6325,Explotación de ganado porcino,
7793,643,CASA SALABERT ,25.963,"DAXMIL INVEST, S.L.",santa Maria de Merlés,Barcelona,1.962727,42.005107,Explotación de ganado porcino,
8441,644,VICTOR BLASCO PORTOLÉS ,25.953,VICTOR BLASCO PORTOLÉS,Sant Mateu,Castellón,0.169076,40.487183,Explotación de ganado porcino,
895,645,CAN DANSA ,25.918,"EXPLO-DANSA, S.C.",Cabanelles,Girona,2.839881,42.198308,Explotación de ganado porcino,
7935,646,MIGUEL FRANCISCO TEJADA GONZALEZ ,25.9,MIGUEL FRANCISCO TEJADA GONZALEZ,Garciahernandez,salamanca,-5.428189,40.812517,Explotación de ganado porcino,
2150,647,HERMANOS DE PABLO ARRIBAS - OLMEDO ,25.9,"HERMANOS DE PABLO ARRIBAS, S.L.",Olmedo,Valladolid,-4.734217,41.313036,Explotación de ganado porcino,
1883,648,EXPLOTACIÓN DE CERDAS MADRES A CHAIRA ,25.9,"COREN, S.C.L",Celanoba,Ourense,-7.997855,42.147291,Explotación de ganado porcino,
4248,649,"GRANJA CANALES, S.L. ",25.844,"GRANJA CANALES, C.B.",Griñon,Madrid,-3.85548,40.21531,Avicultura,
7902,650,ORZALPOR ,25.8,ORZALPOR S.L.,Ayoó de Vidriales,zamora,-6.054847,42.104772,Explotación de ganado porcino,
2152,651,OVILO 2000 S.L. ,25.8,OVILO 2000,Vallelado,Segovia,-4.393794,41.380894,Explotación de ganado porcino,
874,652,GRANJA EL PUIG ,25.752,"RAMADERA DEL MONT, S.L.",Cistellá,Girona,2.83783,42.266166,Explotación de ganado porcino,
1812,653,SAT OBANOS GRANJA EL VILLAR ,25.737,SAT OBANOS 283 NA,Murillo del Cuende,Navarra,-1.63026,42.40001,Explotación de ganado porcino,
9809,654,"INTEGRACIONES DESPROAVE, S.L. ",25.7,"INTEGRACIONES DESPROAVE, S.L.",Marchena,Sevilla,-5.359,37.378,Avicultura,
8696,655,"HNOS. SANZ MEDRANO, S.L ",25.7,"HNOS. SANZ MEDRANO, S.L",Barca,Soria,-2.659961,41.418503,Explotación de ganado porcino,
4177,656,GRANJA EL ABANICO ,25.7,GRANJA EL ABANICO S.L.,Valseca,Segovia,-4.157897,41.000117,Explotación de ganado porcino,
63,657,GRANJA EL ROMERAL ,25.7,"PIENSOS GARLA,S.A.",Huercal,Almeria,-1.839339,37.428165,Explotación de ganado porcino,
3301,658,L´ARTIGA ,25.688,"GRANGES L'ARTIGA, SL",Garrigoles,Girona,3.013764,42.107502,Explotación de ganado porcino,
5601,659,EXPLOTACIONES GANADERAS HNOS CABAÑAS S.L. ,25.679,"EXPLOTACIONES GANADERAS HERMANOS CABAÑAS, S.L.",Recas,Toledo,-4.0144,40.0542,Explotación de ganado porcino,
7888,660,JOSÉ FÉLIX MERINERO VEDÍA ,25.6,JOSÉ FÉLIX MERINERO VEDÍA,Tordomar,Burgos,-3.853622,42.057861,Explotación de ganado porcino,
7692,661,"MARÍN PARDO SALVADOR Y OTROS,S.C. ",25.6,"MARÍN PARDO SALVADOR Y OTROS, S.C.",Cavia,Burgos,-3.870278,42.284167,Explotación de ganado porcino,
9750,662,"RAMADERIA DOLCET TARRAGÓ, SCP ",25.56,"RAMADERIA DOLCET TARRAGÓ, SCP",Alcarrás ,Lleida,0.41779,41.609653,Explotación de ganado porcino,
9745,663,GRANJA FREIXES ,25.56,RAUL FREIXES SOLÀ,Os de Balaguer,Lleida,0.745711,41.886186,Explotación de ganado porcino,
9495,664,GRANJA CAL BARO ,25.56,"LA CENDROSA, S.L.",Penelles,Lleida,0.944924,41.73268,Explotación de ganado porcino,
9183,665,GRANJA MINGUET ,25.56,MIQUEL MINGUET PAMIES,Torregrosa,Lleida,0.812119,41.59291,Explotación de ganado porcino,
9153,666,GRANJA NICOLAS ,25.56,SALVADOR RAMIREZ NICOLAS,Gimenells i el Pla de la Font,Lleida,0.369816,41.639464,Explotación de ganado porcino,
9146,667,GRANJA CLOTET ,25.56,"CAL CLOTET, S.C.P.",Cabanabona,Lleida,1.207113,41.828584,Explotación de ganado porcino,
8003,668,MAS PUIGLLONCH ,25.56,"CASAS-PUIGLLONG, SL",Gurb,Barcelona,2.249844,41.978558,Explotación de ganado porcino,
1346,669,GRANJA TORRE PUJOL ,25.56,PUJOL SABATÉ SL,almacelles,Lleida,0.455419,41.706361,Explotación de ganado porcino,
894,670,GRANJA LES GRILLERES ,25.56,OLIVET SPC,Espolla,Girona,3.010021,42.379664,Explotación de ganado porcino,
9731,671,GRANJA CASANOVA DEL PLA ,25.547,"AGROPECUARIA LLADO, S.L.",Gurb,Barcelona,2.177037,41.947708,Explotación de ganado porcino,
8874,672,GRANJA MIRALLES ,25.541,JOSEP Mª MIRALLES GRAELLS,Tornabous,Lleida,1.090465,41.72007,Explotación de ganado porcino,
8335,673,GRANJA AMISTAD C.B ,25.5,GRANJA LA AMISTAD CB,Taboadela,Ourense,-7.829459,42.252447,Avicultura,
7893,674,GRANJA LAGARPOR ,25.5,"GRANJA LAGARPOR, S.L.",Santa Cecilia,Burgos,-3.815919,42.045278,Explotación de ganado porcino,
9768,675,EXPLOTACIO PORCINA VINYES DEL MIG ,25.496,RAMON COMELLES BORI,Bell-lloc d'Urgell,Lleida,0.755684,41.656287,Explotación de ganado porcino,
8853,676,MAS ARCOUS ,25.496,EXPLOTACIONS AGRICOLES ARCOUS SL,Sant Aniol de Finestres,Girona,2.574558,42.077453,Explotación de ganado porcino,
4884,677,CAN GIRONELLA DE LA CLAU ,25.496,"CAL GIRONELLA, S.L.",Veciana,Barcelona,1.520193,41.692275,Explotación de ganado porcino,
2423,678,MASIA BORRAS ,25.481,"MASIA BORRAS, S.L.",Bellvis,Lleida,0.814521,41.713215,Explotación de ganado porcino,
2669,679,CA L´ENRICH DEL PLA ,25.432,"PRAT POU, JAUME",Odena,Barcelona,1.657531,41.592771,Explotación de ganado porcino,
8182,680,"TEÓFILO JIMÉNEZ SEVILLANO ""PEÑA DEL GATO"" ",25.4,TEOFILO JIMÉNEZ SEVILLANO,Olvega,Soria,-1.928464,41.749875,Explotación de ganado porcino,
5979,681,GRANJA LA PEDRICA ,25.4,"AGROGANADERA MASE, S.L.",Teba,Malaga,-4.925602,37.009117,Explotación de ganado porcino,
905,682,GRANGES PI ,25.367,"AVÍCOLA L'ARBOÇ, S.L.","Cruïlles, Monells i Sant Sadurní de l'Heura",Girona,3.006574,41.940165,Avicultura,
3602,683,S.A.L. MOCAHER ,25.308,S.A.L. MOCAHER,Fuenterrobles,Valencia,-1.373899,39.574044,Explotación de ganado porcino,
2984,684,AGRICOLA I RAMADERA SOFTI ,25.304,"AGRICOLA I RAMADERA SOFTI, S.L. (ABANS ANTONIO LOPEZ ESQUERRE)",Mas de Barberans,Tarragona,0.381325,40.739032,Explotación de ganado porcino,
5710,685,GRANJA BIAU MORELL ,25.302,"BIAU PLAZA, S.L.",Serós,Lleida,0.401377,41.478246,Explotación de ganado porcino,
5246,686,GRANJA FUENTE LA HIGUERA ,25.3,CARMEN GÓMEZ RAMOS,Pedrera,Sevilla,-4.930139,37.222593,Explotación de ganado porcino,
4234,687,GANADEROS ESCOLÁSTICOS EL CAMPÌLLO - VILLALBA DE ADAJA ,25.3,"GANADEROS ESCOLÁSTICOS EL CAMPILLO, S.L.",Matapozuelos,Valladolid,-4.788078,41.371958,Explotación de ganado porcino,
8968,688,"I.G. SAN CRISTOBAL, S. L. ",25.207,"I.G. SAN CRISTOBAL, S. L.",Santa Coloma,Rioja (La),-2.652197,42.382858,Explotación de ganado porcino,
8566,689,"AVÍCOLA NAVER, S.L. ",25.179,AVICOLA NAVER S.L,Consuegra,Toledo,-3.61,39.48,Avicultura,
2026,690,GRANJA SOROLLA ,25.16,"SANA EXPLOTACIONES AVICOLAS, SL",Constantí,Tarragona,1.180557,41.185949,Avicultura,
5674,691,GRANJA LA FABRICA ,25.151,LA FABRICA S.C.C.L.,Llardecans,Lleida,0.556157,41.368252,Explotación de ganado porcino,
5644,692,AVICENTRO S.L. ,25.129,"AVICENTRO, S.L.",Sacedón,Guadalajara,-2.8264,40.4867,Avicultura,
9063,693,MARIO GONZÁLEZ ORTIZ - LA PORQUERA ,25.1,MARIO GONZÁLEZ ORTÍZ,Langa de Duero,Soria,-3.384156,41.646033,Explotación de ganado porcino,
8090,694,CÁNDIDO MARTÍN ALONSO ,25.1,CÁNDIDO MARTIN ALONSO,Gimialcón,Avila,-5.138239,40.868306,Explotación de ganado porcino,
7880,695,AGROPECUARIA BEHER - LOS VALHONDOSI (PELAYOS) ,25.1,"AGROPECUARIA BEHER, S.L.",Pelayos,salamanca,-5.572961,40.673736,Explotación de ganado porcino,
3328,696,GRANJA REIG PASTOR ,25.1,JOSEP REIG PÀMIES,Torregrosa,Lleida,0.784877,41.575303,Explotación de ganado porcino,
9098,697,EL SOLER ,25.072,"URBA-RURAL, S.L.",Oristá,Barcelona,2.106435,41.967769,Explotación de ganado porcino,
9472,698,GRANJA TIMONEDA PIQUE ,25.017,IMMACULADA TIMONEDA MORERA,Preixana,Lleida,1.014234,41.591338,Explotación de ganado porcino,
8864,699,EL CAMP ,24.985,EL CAMP SCP,Taradell,Barcelona,2.263849,41.869185,Explotación de ganado porcino,
1876,700,"LARRAPORC, S.A.-LARRAGA ",24.96,"LARRAPORC, S.A.",Larraga,Navarra,-1.84573,42.55945,Explotación de ganado porcino,
9097,701,LA VINYA ,24.921,"GARRIGA I MASANA, JOAN",Montagai,Lleida,0.980646,41.791691,Explotación de ganado porcino,
2136,702,GRANJA SEGURA ,24.921,"GRANJA SEGURA BONET, C.B.","Senía, La",Tarragona,0.321599,40.626469,Explotación de ganado porcino,
1353,703,GRANJA FERNANDEZ ,24.92,JOSEP FERNANDEZ I FILLS S.C.P.,Bellvis,Lleida,0.817014,41.664404,Avicultura,
5374,704,ES220250000806-GALLINAS-ALTORRICÓN ,24.9,AVICOLA ESTEBAN GRACIA S.L.,Altorricón,Huesca,0.415009,41.802308,Avicultura,
1901,705,EXPLOTACIÓN DE CERDAS MADRES FONTEARCADA ,24.9,COOPERATIVA LA PIUCA,"Blancos, Os",Ourense,-7.802105,41.990739,Explotación de ganado porcino,
2151,706,GRANJA LLERS ,24.889,"AGROPECUARIA BRUGUERA BONFILL, SL",Llers,Girona,2.901156,42.308431,Explotación de ganado porcino,
6461,707,GRANJA LA SERRANETA ,24.883,"VIPERTORRE, S.L.U.",Lleida,Lleida,0.566704,41.597909,Explotación de ganado porcino,
8795,708,GRANJA FÀBREGA ,24.854,"MAS QUINTANA, S.L.",Cabanes,Girona,2.952149,42.322738,Explotación de ganado porcino,
3619,709,GRUPO AVÍCOLA LA CRESTA ,24.804,"GRUPO AVÍCOLA LA CRESTA, S.L.",Sinarcas,Valencia,-1.251982,39.705692,Avicultura,
4259,710,S.A.T. 1201 SAN ANTONIO ,24.8,SAN ANTONIO 1201 S.L.,Torreiglesias,Segovia,-4.025739,41.072747,Explotación de ganado porcino,
776,711,GRANJA O CAMPO ,24.8,GENERAL GANADERA GALLEGA,Curtís,Coruña (A),-8.058221,43.13247,Explotación de ganado porcino,
8887,712,ANTONIO TORRES SERRANO ,24.768,TORRES BARRUFET SL,Torregrosa,Lleida,0.84892,41.570323,Explotación de ganado porcino,
8385,713,GRANJA LES PALMERES ,24.727,"GRANJAS PUJADAS, S.A.",Marganell,Barcelona,1.815276,41.657958,Explotación de ganado porcino,
5222,714,"GRANJA ""LA ENCINA"" ",24.7,"COMPAÑÍA GANADERA ALCALAINA, S.A.",Alcalá la Real,Jaén,-3.933386,37.467277,Explotación de ganado porcino,
1792,715,"AGROPECUARIA SAN FERMIN, S.L. ",24.695,"AGROPECUARIA SAN FERMIN, S.L.",Murillo el Cuende,Navarra,-1.584864,42.327585,Explotación de ganado porcino,
5354,716,EXPLOTACION PORCINA BOQUERAS ,24.668,"JUAN JIMENEZ GARCIA, S.A.",Lorca,Murcia,-1.614858,37.645502,Explotación de ganado porcino,
8914,717,GRANJA OSCAR ,24.665,OSCAR PLENSA PINO,Alguerri,Lleida,0.642681,41.829163,Explotación de ganado porcino,
9484,718,GRANJA SUISJER ,24.645,"SUISJER, S.L.",Anglesola,Lleida,1.042979,41.641736,Explotación de ganado porcino,
9957,719,GRANJA LA CALÇADA ,24.602,"DESBLOCK, SL",Bellvis,Lleida,0.793924,41.699033,Explotación de ganado porcino,
8238,720,"BÁRCENA MARTÍNEZ, S.L. ",24.6,ARROYO BLANCO,Merindad de Río Ubierna,Burgos,-3.667611,42.430394,Avicultura,
5859,721,EXPLOTACION LA VENTICA ,24.6,"CASTILLO DE LARACHE , S.L.",Caravaca de la Cruz,Murcia,-2.13729,37.929751,Explotación de ganado porcino,
2757,722,LEROPORC S.L. ,24.6,LEROPORC S.L.,Fresno de la Ribera,zamora,-5.538333,41.529722,Explotación de ganado porcino,
8812,723,JAUME FARRAN CURIA ,24.557,JAUME FARRAN CURIA,Ivars dÚrgell,Lleida,0.960738,41.698351,Explotación de ganado porcino,
9933,724,GRANJA ESTEVE I RIUS ,24.53,"ESTEVE RIUS, S.L. (ABANS JOSEP BERGE PEDROS)",Agramunt,Lleida,1.113781,41.847857,Explotación de ganado porcino,
1474,725,FINCA EL MANZANO DE LA PEÑUELA ,24.5,MIGUEL ATIENZA ZAMORANO,Fuentes de Andalucía,Sevilla,-5.303764,37.448151,Explotación de ganado porcino,
9190,726,BOSC DEL BARÓ ,24.481,"GRANGERS UNITS B.A., SL",Foixá,Girona,3.019576,42.052968,Explotación de ganado porcino,
950,727,ES229040000050-CERDOS-SOTONERA (LA) ,24.475,"RIO SALAO, S.C.",La Sotonera,Huesca,-0.529731,42.239652,Explotación de ganado porcino,
7863,728,JUAN MANUEL CRIADO MIGUEL (DEHESA DE GAVILAN) ,24.4,JUAN MANUEL CRIADO MIGUEL,Sancti-Spíritus,salamanca,-6.380006,40.654606,Explotación de ganado porcino,
2477,729,EXPLOTACIO GERMANS TEIXIDO BRAGOS ,24.34,ANTONI TEIXIDO BRAGOS,"Espluga Calba, L'",Lleida,0.991462,41.49034,Explotación de ganado porcino,
6208,730,EXPLOTACION PORCINA DE TIPO MIXTO - FRANCISCO MORENO ,24.336,"FRANCISCO MORENO E HIJOS, S.L.",Lorca,Murcia,-1.670675,37.58152,Explotación de ganado porcino,
7420,731,CEBADERO PORCINO LOS CORRALES ,24.331,BIONUTRA,Fuente Álamo de Murcia,Murcia,-1.174035,37.767221,Explotación de ganado porcino,
9216,732,GRANJA GODIA ,24.314,FRANCISO GÒDIA RIBES,Alcarrás,Lleida,0.463562,41.587771,Explotación de ganado porcino,
8670,733,JORGE ALONSO BARRIOS ,24.3,JORGE ALONSO BARRIOS,Laguna de Negrillos,León,-5.652214,42.257061,Explotación de ganado porcino,
4389,734,ROSA MARÍA MORENO MUÑOZ ,24.3,"MORENO MUÑOZ, ROSA MARIA",Berlanga de Duero,Soria,-2.878494,41.450958,Explotación de ganado porcino,
1885,735,EXPLOTACION DE CERDAS MADRES CASARDANSOLA-VILARIÑO ,24.3,COOPERATIVA AURIENSE S.C.G,Montederramo,Ourense,-7.548784,42.302797,Explotación de ganado porcino,
727,736,GRANJA LA MERCED ,24.3,AGROPECUARIA LA MERCED S.L.,Arcos de la Frontera,Cádiz,-5.731964,36.698017,Explotación de ganado porcino,
70,737,"FILO-PORC, S.L. ",24.3,"FILO-PORC, S.L.",Huercal,Almeria,-1.849847,37.440174,Explotación de ganado porcino,
8837,738,EL PLA DE LA SENYORA ,24.282,"ILLA CASTELL, SA",Oristá,Barcelona,2.088228,41.975101,Explotación de ganado porcino,
8793,739,LA BARRACA ,24.282,"RAMADERIA LA BARRACA, SCP",Avellanes,Lleida,0.764297,41.898212,Explotación de ganado porcino,
3325,740,GRANJA GRAVES ,24.282,JAUME PUJOL FORNS,Camarasa,Lleida,0.83229,41.853077,Explotación de ganado porcino,
1357,741,EXPLOTACIO COLOMINES ,24.282,"EXPLOTACIÓ COLOMINES, SCP",Bellcaire d'Urgell,Lleida,0.885799,41.768991,Explotación de ganado porcino,
800,742,GRANJAS INIESTA S.C.L. I. ,24.259,"GRANJAS INIESTA, S.C.L.",Iniesta,Cuenca,-1.7482,39.4808,Explotación de ganado porcino,
9065,743,AGROTEF CARRALVALLE ,24.2,"AGROPECUARIA TEJEDOR DE FRUTOS, S.L.",Fuentepelayo,Segovia,-4.184722,41.2075,Explotación de ganado porcino,
6308,744,"ABELARDO MARTÍNEZ GARCÍA Y DOS MAS, S.C ",24.2,"ABELARDO MARTÍNEZ GARCÍA Y DOS MAS, S.C",Valles de Palenzuela,Burgos,-4.104317,42.120711,Explotación de ganado porcino,
